{"type":"Topology","arcs":[],"objects":{"cities":{"type":"GeometryCollection","geometries":[{"type":"Point","coordinates":[32.5332995,0.5832991],"properties":{"name":"Bombo","country":"Uganda","capital":false}},{"type":"Point","coordinates":[30.2750016,0.6710041],"properties":{"name":"Fort Portal","country":"Uganda","capital":false}},{"type":"Point","coordinates":[15.7989965,40.6420021],"properties":{"name":"Potenza","country":"Italy","capital":false}},{"type":"Point","coordinates":[14.6559966,41.5629991],"properties":{"name":"Campobasso","country":"Italy","capital":false}},{"type":"Point","coordinates":[7.3150026,45.7370011],"properties":{"name":"Aosta","country":"Italy","capital":false}},{"type":"Point","coordinates":[19.9490045,60.0969962],"properties":{"name":"Mariehamn","country":"Aland","capital":false}},{"type":"Point","coordinates":[35.2062094,31.9029448],"properties":{"name":"Ramallah","country":"Palestine","capital":false}},{"type":"Point","coordinates":[12.4533865,41.9032822],"properties":{"name":"Vatican City","country":"Vatican","capital":true}},{"type":"Point","coordinates":[0.3332765,46.5832923],"properties":{"name":"Poitier","country":"France","capital":false}},{"type":"Point","coordinates":[3.0800081,45.7799821],"properties":{"name":"Clermont-Ferrand","country":"France","capital":false}},{"type":"Point","coordinates":[6.0300089,47.229997],"properties":{"name":"Besancon","country":"France","capital":false}},{"type":"Point","coordinates":[-58.8638641,-62.1738867],"properties":{"name":"Artigas Base","country":"Antarctica","capital":false}},{"type":"Point","coordinates":[32.6400126,-13.6295699],"properties":{"name":"Chipata","country":"Zambia","capital":false}},{"type":"Point","coordinates":[33.1999267,0.440424],"properties":{"name":"Jinja","country":"Uganda","capital":false}},{"type":"Point","coordinates":[30.9000154,3.0203699],"properties":{"name":"Arua","country":"Uganda","capital":false}},{"type":"Point","coordinates":[34.1699967,1.0904102],"properties":{"name":"Mbale","country":"Uganda","capital":false}},{"type":"Point","coordinates":[34.6399939,2.5403475],"properties":{"name":"Moroto","country":"Uganda","capital":false}},{"type":"Point","coordinates":[31.7299906,-0.3296065],"properties":{"name":"Masaka","country":"Uganda","capital":false}},{"type":"Point","coordinates":[30.6500048,-0.5996159],"properties":{"name":"Mbarara","country":"Uganda","capital":false}},{"type":"Point","coordinates":[16.6400073,-20.4595406],"properties":{"name":"Otjiwarongo","country":"Namibia","capital":false}},{"type":"Point","coordinates":[11.3400207,44.500422],"properties":{"name":"Bologna","country":"Italy","capital":false}},{"type":"Point","coordinates":[9.1039815,39.2223979],"properties":{"name":"Cagliari","country":"Italy","capital":false}},{"type":"Point","coordinates":[16.6000097,38.9003762],"properties":{"name":"Catanzaro","country":"Italy","capital":false}},{"type":"Point","coordinates":[16.8727579,41.1142204],"properties":{"name":"Bari","country":"Italy","capital":false}},{"type":"Point","coordinates":[13.3900248,42.3503982],"properties":{"name":"L'Aquila","country":"Italy","capital":false}},{"type":"Point","coordinates":[13.4999406,43.6003736],"properties":{"name":"Ancona","country":"Italy","capital":false}},{"type":"Point","coordinates":[12.3899825,43.1103776],"properties":{"name":"Perugia","country":"Italy","capital":false}},{"type":"Point","coordinates":[13.8000256,45.6503776],"properties":{"name":"Trieste","country":"Italy","capital":false}},{"type":"Point","coordinates":[11.1199825,46.0804289],"properties":{"name":"Trento","country":"Italy","capital":false}},{"type":"Point","coordinates":[-61.0800291,14.6104118],"properties":{"name":"Fort-de-France","country":"France","capital":false}},{"type":"Point","coordinates":[136.7627526,35.4230949],"properties":{"name":"Gifu","country":"Japan","capital":false}},{"type":"Point","coordinates":[-54.0325346,5.4976241],"properties":{"name":"Saint-Laurent-du-Maroni","country":"France","capital":false}},{"type":"Point","coordinates":[-0.3499893,49.1837537],"properties":{"name":"Caen","country":"France","capital":false}},{"type":"Point","coordinates":[-1.5900169,47.2103858],"properties":{"name":"Nantes","country":"France","capital":false}},{"type":"Point","coordinates":[8.7282938,41.9270648],"properties":{"name":"Ajaccio","country":"France","capital":false}},{"type":"Point","coordinates":[3.8699857,43.6103988],"properties":{"name":"Montpellier","country":"France","capital":false}},{"type":"Point","coordinates":[5.0300183,47.3304043],"properties":{"name":"Dijon","country":"France","capital":false}},{"type":"Point","coordinates":[1.9000284,47.9004212],"properties":{"name":"Orleans","country":"France","capital":false}},{"type":"Point","coordinates":[1.0799751,49.4304053],"properties":{"name":"Rouen","country":"France","capital":false}},{"type":"Point","coordinates":[4.029976,49.2503904],"properties":{"name":"Reims","country":"France","capital":false}},{"type":"Point","coordinates":[2.300004,49.9003766],"properties":{"name":"Amiens","country":"France","capital":false}},{"type":"Point","coordinates":[6.2000244,48.6836808],"properties":{"name":"Nancy","country":"France","capital":false}},{"type":"Point","coordinates":[-61.7054837,16.0104101],"properties":{"name":"Basse-terre","country":"France","capital":false}},{"type":"Point","coordinates":[19.8499406,45.2503762],"properties":{"name":"Novi Sad","country":"Serbia","capital":false}},{"type":"Point","coordinates":[17.1799743,44.7804049],"properties":{"name":"Banja Luka","country":"Bosnia and Herzegovina","capital":false}},{"type":"Point","coordinates":[-81.37156994982368,19.294748156110312],"properties":{"name":"George Town","country":"Cayman Islands","capital":false}},{"type":"Point","coordinates":[-71.1359786,21.4664274],"properties":{"name":"Grand Turk","country":"Turks and Caicos Islands","capital":false}},{"type":"Point","coordinates":[-4.480269097598402,54.14912168202999],"properties":{"name":"Douglas","country":"Isle of Man","capital":false}},{"type":"Point","coordinates":[12.4417702,43.9360958],"properties":{"name":"San Marino","country":"San Marino","capital":true}},{"type":"Point","coordinates":[-68.87235603135242,12.112289523294688],"properties":{"name":"Willemstad","country":"Curacao","capital":false}},{"type":"Point","coordinates":[-70.02552621251468,12.521502808252649],"properties":{"name":"Oranjestad","country":"Aruba","capital":false}},{"type":"Point","coordinates":[9.5166695,47.1337238],"properties":{"name":"Vaduz","country":"Liechtenstein","capital":true}},{"type":"Point","coordinates":[-59.6833185,-62.4995068],"properties":{"name":"Capitan Arturo Prat Station","country":"Antarctica","capital":false}},{"type":"Point","coordinates":[-56.6500153,-64.2328894],"properties":{"name":"Marambio Base","country":"Antarctica","capital":false}},{"type":"Point","coordinates":[164.2190271,-74.6191926],"properties":{"name":"Zucchelli Station","country":"Antarctica","capital":false}},{"type":"Point","coordinates":[-68.1235405,-67.5647756],"properties":{"name":"Rothera Station","country":"Antarctica","capital":false}},{"type":"Point","coordinates":[-64.0468756,-64.7624134],"properties":{"name":"Palmer Station","country":"Antarctica","capital":false}},{"type":"Point","coordinates":[-58.9076523,-62.1827436],"properties":{"name":"Base Presidente Montalva","country":"Antarctica","capital":false}},{"type":"Point","coordinates":[-58.650476,-62.2241439],"properties":{"name":"Carlini Base","country":"Antarctica","capital":false}},{"type":"Point","coordinates":[-58.7715988,-62.2248534],"properties":{"name":"King Sejong Station","country":"Antarctica","capital":false}},{"type":"Point","coordinates":[-58.9666956,-62.21632],"properties":{"name":"Great Wall Station","country":"Antarctica","capital":false}},{"type":"Point","coordinates":[-58.9526658,-62.1949625],"properties":{"name":"Escudero Base","country":"Antarctica","capital":false}},{"type":"Point","coordinates":[-57.9999846,-61.999589],"properties":{"name":"Elephant Island","country":"Antarctica","capital":false}},{"type":"Point","coordinates":[166.7491023,-77.8469382],"properties":{"name":"Scott Base","country":"Antarctica","capital":false}},{"type":"Point","coordinates":[166.8694157,-77.7322824],"properties":{"name":"McMurdo Station","country":"Antarctica","capital":false}},{"type":"Point","coordinates":[76.3392981,-69.434063],"properties":{"name":"Zhongshan Station","country":"Antarctica","capital":false}},{"type":"Point","coordinates":[106.8000337,-78.4662842],"properties":{"name":"Vostok","country":"Antarctica","capital":false}},{"type":"Point","coordinates":[-90.584203,-68.7951614],"properties":{"name":"Peter I Island","country":"Antarctica","capital":false}},{"type":"Point","coordinates":[93.0062885,-66.5755295],"properties":{"name":"Mirny Station","country":"Antarctica","capital":false}},{"type":"Point","coordinates":[62.8750007,-67.6145203],"properties":{"name":"Mawson Station","country":"Antarctica","capital":false}},{"type":"Point","coordinates":[78.1407351,-68.7776744],"properties":{"name":"Davis Station","country":"Antarctica","capital":false}},{"type":"Point","coordinates":[124.1670357,-74.6663094],"properties":{"name":"Concordia Research Station","country":"Antarctica","capital":false}},{"type":"Point","coordinates":[110.536214,-66.2860861],"properties":{"name":"Casey Station","country":"Antarctica","capital":false}},{"type":"Point","coordinates":[176.9944521,-89.9999998],"properties":{"name":"AmundseniScott South Pole Station","country":"Antarctica","capital":false}},{"type":"Point","coordinates":[-13.4167111,-73.0496122],"properties":{"name":"Wasa Station","country":"Antarctica","capital":false}},{"type":"Point","coordinates":[2.5333231,-72.0162903],"properties":{"name":"Troll Station","country":"Antarctica","capital":false}},{"type":"Point","coordinates":[-11.2166903,-74.5829036],"properties":{"name":"Svea Station","country":"Antarctica","capital":false}},{"type":"Point","coordinates":[-11.8502129,-71.3012347],"properties":{"name":"Novolazarevskaya Station","country":"Antarctica","capital":false}},{"type":"Point","coordinates":[-7.838438,-70.8903967],"properties":{"name":"Neumayer Station III","country":"Antarctica","capital":false}},{"type":"Point","coordinates":[11.7304584,-70.7821796],"properties":{"name":"Maitri Station","country":"Antarctica","capital":false}},{"type":"Point","coordinates":[-26.4741567,-76.0922632],"properties":{"name":"Halley Station","country":"Antarctica","capital":false}},{"type":"Point","coordinates":[-34.6166832,-77.8663208],"properties":{"name":"Belgrano II Base","country":"Antarctica","capital":false}},{"type":"Point","coordinates":[-40.5015315,-81.1790847],"properties":{"name":"Sobral Base","country":"Antarctica","capital":false}},{"type":"Point","coordinates":[-13.4167111,-75.0495935],"properties":{"name":"Aboa Station","country":"Antarctica","capital":false}},{"type":"Point","coordinates":[-67.0999976,-68.1163216],"properties":{"name":"San Martin Base","country":"Antarctica","capital":false}},{"type":"Point","coordinates":[-57.8895935,-63.3284182],"properties":{"name":"Gen. O'Higgins Base","country":"Antarctica","capital":false}},{"type":"Point","coordinates":[-57.0259015,-63.3753287],"properties":{"name":"Esperanza Station","country":"Antarctica","capital":false}},{"type":"Point","coordinates":[-44.7333008,-60.7328963],"properties":{"name":"Orcadas Station","country":"Antarctica","capital":false}},{"type":"Point","coordinates":[-45.6007033,-60.6313081],"properties":{"name":"Signy Research Station","country":"Antarctica","capital":false}},{"type":"Point","coordinates":[139.9636836,-66.7750509],"properties":{"name":"Dumont d'Urville Station","country":"Antarctica","capital":false}},{"type":"Point","coordinates":[39.7460831,-69.0303925],"properties":{"name":"Showa Station","country":"Antarctica","capital":false}},{"type":"Point","coordinates":[-5.346014061862125,36.128341769040006],"properties":{"name":"Gibraltar","country":"Gibraltar","capital":false}},{"type":"Point","coordinates":[31.1999971,-26.4666675],"properties":{"name":"Lobamba","country":"eSwatini","capital":false}},{"type":"Point","coordinates":[-3.2190906,55.9483279],"properties":{"name":"Edinburgh","country":"United Kingdom","capital":false}},{"type":"Point","coordinates":[-3.1675981955277295,51.48261904913091],"properties":{"name":"Cardiff","country":"United Kingdom","capital":false}},{"type":"Point","coordinates":[15.620903943662215,78.22097104117844],"properties":{"name":"Longyearbyen","country":"Svalbard and Jan Mayen Islands","capital":false}},{"type":"Point","coordinates":[6.1300028,49.6116604],"properties":{"name":"Luxembourg","country":"Luxembourg","capital":true}},{"type":"Point","coordinates":[7.6680146,45.072333],"properties":{"name":"Turin","country":"Italy","capital":false}},{"type":"Point","coordinates":[166.4442852,-22.2625278],"properties":{"name":"Noumea","country":"New Caledonia","capital":false}},{"type":"Point","coordinates":[132.765839,33.8455426],"properties":{"name":"Matsuyama","country":"Japan","capital":false}},{"type":"Point","coordinates":[-1.670012,48.1000214],"properties":{"name":"Rennes","country":"France","capital":false}},{"type":"Point","coordinates":[1.4479809,43.6219048],"properties":{"name":"Toulouse","country":"France","capital":false}},{"type":"Point","coordinates":[1.2499906,45.8299791],"properties":{"name":"Limoges","country":"France","capital":false}},{"type":"Point","coordinates":[3.0780622,50.651915],"properties":{"name":"Lille","country":"France","capital":false}},{"type":"Point","coordinates":[7.7500073,48.5799662],"properties":{"name":"Strasbourg","country":"France","capital":false}},{"type":"Point","coordinates":[41.6300065,41.6000047],"properties":{"name":"Batumi","country":"Georgia","capital":false}},{"type":"Point","coordinates":[-16.8800397,32.6499825],"properties":{"name":"Funchal","country":"Portugal","capital":false}},{"type":"Point","coordinates":[25.3500183,13.6299807],"properties":{"name":"El Fasher","country":"Sudan","capital":false}},{"type":"Point","coordinates":[18.1299939,-26.5738961],"properties":{"name":"Keetmanshoop","country":"Namibia","capital":false}},{"type":"Point","coordinates":[14.5350195,-22.6688631],"properties":{"name":"Swakopmund","country":"Namibia","capital":false}},{"type":"Point","coordinates":[8.9300386,44.4099882],"properties":{"name":"Genoa","country":"Italy","capital":false}},{"type":"Point","coordinates":[41.0200179,43.0200214],"properties":{"name":"Sukhumi","country":"Georgia","capital":false}},{"type":"Point","coordinates":[158.1499743,6.9166437],"properties":{"name":"Palikir","country":"Federated States of Micronesia","capital":true}},{"type":"Point","coordinates":[171.3800002,7.1030043],"properties":{"name":"Majuro","country":"Marshall Islands","capital":true}},{"type":"Point","coordinates":[144.750017,13.4700163],"properties":{"name":"Agana","country":"Guam","capital":false}},{"type":"Point","coordinates":[179.2166471,-8.516652],"properties":{"name":"Funafuti","country":"Tuvalu","capital":true}},{"type":"Point","coordinates":[134.6265485,7.4873962],"properties":{"name":"Melekeok","country":"Palau","capital":true}},{"type":"Point","coordinates":[-9.6525222,26.1191667],"properties":{"name":"Bir Lehlou","country":"Western Sahara","capital":false}},{"type":"Point","coordinates":[7.4069132,43.7396457],"properties":{"name":"Monaco","country":"Monaco","capital":true}},{"type":"Point","coordinates":[173.0175708,1.3381875],"properties":{"name":"Tarawa","country":"Kiribati","capital":true}},{"type":"Point","coordinates":[43.2402441,-11.7041577],"properties":{"name":"Moroni","country":"Comoros","capital":true}},{"type":"Point","coordinates":[113.54437522184952,22.18913523490745],"properties":{"name":"Macau","country":"Macau S.A.R","capital":false}},{"type":"Point","coordinates":[1.5265942551654812,42.5107534941671],"properties":{"name":"Andorra","country":"Andorra","capital":true}},{"type":"Point","coordinates":[-117.3019801,34.1223296],"properties":{"name":"San Bernardino","country":"United States of America","capital":false}},{"type":"Point","coordinates":[-73.201907,41.1819245],"properties":{"name":"Bridgeport","country":"United States of America","capital":false}},{"type":"Point","coordinates":[-77.6218956,43.1723715],"properties":{"name":"Rochester","country":"United States of America","capital":false}},{"type":"Point","coordinates":[-2.2486846671598855,53.47531992472453],"properties":{"name":"Manchester","country":"United Kingdom","capital":false}},{"type":"Point","coordinates":[74.1830761,32.1623717],"properties":{"name":"Gujranwala","country":"Pakistan","capital":false}},{"type":"Point","coordinates":[126.6402876,37.4780937],"properties":{"name":"Incheon","country":"South Korea","capital":false}},{"type":"Point","coordinates":[5.6180622,6.3424232],"properties":{"name":"Benin City","country":"Nigeria","capital":false}},{"type":"Point","coordinates":[118.0780712,24.4519379],"properties":{"name":"Xiamen","country":"China","capital":false}},{"type":"Point","coordinates":[106.1280513,30.7823784],"properties":{"name":"Nanchong","country":"China","capital":false}},{"type":"Point","coordinates":[105.0480655,29.5823225],"properties":{"name":"Neijiang","country":"China","capital":false}},{"type":"Point","coordinates":[112.528074,33.0023463],"properties":{"name":"Nanyang","country":"China","capital":false}},{"type":"Point","coordinates":[120.8280325,40.7522867],"properties":{"name":"Jinxi","country":"China","capital":false}},{"type":"Point","coordinates":[121.3980753,37.532354],"properties":{"name":"Yantai","country":"China","capital":false}},{"type":"Point","coordinates":[117.5680765,34.8819473],"properties":{"name":"Zaozhuang","country":"China","capital":false}},{"type":"Point","coordinates":[120.6180712,31.3024242],"properties":{"name":"Suzhou","country":"China","capital":false}},{"type":"Point","coordinates":[117.1780744,34.2819581],"properties":{"name":"Xuzhou","country":"China","capital":false}},{"type":"Point","coordinates":[120.298039,31.581942],"properties":{"name":"Wuxi","country":"China","capital":false}},{"type":"Point","coordinates":[126.5480968,43.8519166],"properties":{"name":"Jilin","country":"China","capital":false}},{"type":"Point","coordinates":[76.7780598,30.7219428],"properties":{"name":"Chandigarh","country":"India","capital":false}},{"type":"Point","coordinates":[74.8447928,32.7137334],"properties":{"name":"Jammu","country":"India","capital":false}},{"type":"Point","coordinates":[75.8980618,17.6723518],"properties":{"name":"Sholapur","country":"India","capital":false}},{"type":"Point","coordinates":[75.32894831924871,19.861686210186296],"properties":{"name":"Aurangabad","country":"India","capital":false}},{"type":"Point","coordinates":[73.7780362,20.0023646],"properties":{"name":"Nasik","country":"India","capital":false}},{"type":"Point","coordinates":[91.7666361,26.144023],"properties":{"name":"Dispur","country":"India","capital":false}},{"type":"Point","coordinates":[75.5670743,31.3368665],"properties":{"name":"Jullundur","country":"India","capital":false}},{"type":"Point","coordinates":[81.838061,25.4569412],"properties":{"name":"Allahabad","country":"India","capital":false}},{"type":"Point","coordinates":[78.7548384,28.8437371],"properties":{"name":"Moradabad","country":"India","capital":false}},{"type":"Point","coordinates":[77.4064452,28.6623269],"properties":{"name":"Ghaziabad","country":"India","capital":false}},{"type":"Point","coordinates":[78.0130749,27.1723662],"properties":{"name":"Agra","country":"India","capital":false}},{"type":"Point","coordinates":[78.059842,27.8941568],"properties":{"name":"Aligarh","country":"India","capital":false}},{"type":"Point","coordinates":[77.6980553,29.0023579],"properties":{"name":"Meerut","country":"India","capital":false}},{"type":"Point","coordinates":[86.4180399,23.8023394],"properties":{"name":"Dhanbad","country":"India","capital":false}},{"type":"Point","coordinates":[78.16919652961643,26.20003488730391],"properties":{"name":"Gwalior","country":"India","capital":false}},{"type":"Point","coordinates":[73.1780728,22.3119652],"properties":{"name":"Vadodara","country":"India","capital":false}},{"type":"Point","coordinates":[70.7980631,22.3119652],"properties":{"name":"Rajkot","country":"India","capital":false}},{"type":"Point","coordinates":[-56.5100497,-33.4100163],"properties":{"name":"Durazno","country":"Uruguay","capital":false}},{"type":"Point","coordinates":[-93.4108464,48.6011277],"properties":{"name":"International Falls","country":"United States of America","capital":false}},{"type":"Point","coordinates":[-93.0849748,44.9439866],"properties":{"name":"St. Paul","country":"United States of America","capital":false}},{"type":"Point","coordinates":[-108.5400004,45.788302],"properties":{"name":"Billings","country":"United States of America","capital":false}},{"type":"Point","coordinates":[-111.299987,47.5002905],"properties":{"name":"Great Falls","country":"United States of America","capital":false}},{"type":"Point","coordinates":[-113.9930526,46.872241],"properties":{"name":"Missoula","country":"United States of America","capital":false}},{"type":"Point","coordinates":[-101.2958173,48.2324939],"properties":{"name":"Minot","country":"United States of America","capital":false}},{"type":"Point","coordinates":[-96.7894257,46.8772278],"properties":{"name":"Fargo","country":"United States of America","capital":false}},{"type":"Point","coordinates":[-155.08153952277408,19.705642844165897],"properties":{"name":"Hilo","country":"United States of America","capital":false}},{"type":"Point","coordinates":[-122.899434,47.0380449],"properties":{"name":"Olympia","country":"United States of America","capital":false}},{"type":"Point","coordinates":[-117.4199494,47.669996],"properties":{"name":"Spokane","country":"United States of America","capital":false}},{"type":"Point","coordinates":[-122.6399925,45.6303013],"properties":{"name":"Vancouver","country":"United States of America","capital":false}},{"type":"Point","coordinates":[-111.6505083,35.1980957],"properties":{"name":"Flagstaff","country":"United States of America","capital":false}},{"type":"Point","coordinates":[-110.8919321,32.2069426],"properties":{"name":"Tucson","country":"United States of America","capital":false}},{"type":"Point","coordinates":[-119.7166177148008,34.41079912844683],"properties":{"name":"Santa Barbara","country":"United States of America","capital":false}},{"type":"Point","coordinates":[-119.7729841,36.7477169],"properties":{"name":"Fresno","country":"United States of America","capital":false}},{"type":"Point","coordinates":[-124.15037109618974,40.793038839681444],"properties":{"name":"Eureka","country":"United States of America","capital":false}},{"type":"Point","coordinates":[-104.7919863,38.8629625],"properties":{"name":"Colorado Springs","country":"United States of America","capital":false}},{"type":"Point","coordinates":[-119.8200096,39.529976],"properties":{"name":"Reno","country":"United States of America","capital":false}},{"type":"Point","coordinates":[-115.7619886,40.8325063],"properties":{"name":"Elko","country":"United States of America","capital":false}},{"type":"Point","coordinates":[-106.6413308,35.1049748],"properties":{"name":"Albuquerque","country":"United States of America","capital":false}},{"type":"Point","coordinates":[-123.0238967,44.9280703],"properties":{"name":"Salem","country":"United States of America","capital":false}},{"type":"Point","coordinates":[-106.32324265972944,42.84687217376596],"properties":{"name":"Casper","country":"United States of America","capital":false}},{"type":"Point","coordinates":[-95.669985,39.0500053],"properties":{"name":"Topeka","country":"United States of America","capital":false}},{"type":"Point","coordinates":[-94.6060401,39.1090344],"properties":{"name":"Kansas City","country":"United States of America","capital":false}},{"type":"Point","coordinates":[-95.9300208,36.1200033],"properties":{"name":"Tulsa","country":"United States of America","capital":false}},{"type":"Point","coordinates":[-96.7299978,43.549989],"properties":{"name":"Sioux Falls","country":"United States of America","capital":false}},{"type":"Point","coordinates":[-93.7700234,32.5000175],"properties":{"name":"Shreveport","country":"United States of America","capital":false}},{"type":"Point","coordinates":[-91.1401581,30.4579458],"properties":{"name":"Baton Rouge","country":"United States of America","capital":false}},{"type":"Point","coordinates":[-97.3400381,32.739977],"properties":{"name":"Ft. Worth","country":"United States of America","capital":false}},{"type":"Point","coordinates":[-97.4018948,27.7428144],"properties":{"name":"Corpus Christi","country":"United States of America","capital":false}},{"type":"Point","coordinates":[-97.7447242,30.2688955],"properties":{"name":"Austin","country":"United States of America","capital":false}},{"type":"Point","coordinates":[-101.8299966,35.2299801],"properties":{"name":"Amarillo","country":"United States of America","capital":false}},{"type":"Point","coordinates":[-106.511941,31.7819298],"properties":{"name":"El Paso","country":"United States of America","capital":false}},{"type":"Point","coordinates":[-99.5072185,27.5061363],"properties":{"name":"Laredo","country":"United States of America","capital":false}},{"type":"Point","coordinates":[-71.18252189086121,8.569520453572299],"properties":{"name":"Merida","country":"Venezuela","capital":false}},{"type":"Point","coordinates":[-73.2124669,44.4757982],"properties":{"name":"Burlington","country":"United States of America","capital":false}},{"type":"Point","coordinates":[-86.2791887,32.3616022],"properties":{"name":"Montgomery","country":"United States of America","capital":false}},{"type":"Point","coordinates":[-84.2800342,30.4499876],"properties":{"name":"Tallahassee","country":"United States of America","capital":false}},{"type":"Point","coordinates":[-81.3819762,28.5119227],"properties":{"name":"Orlando","country":"United States of America","capital":false}},{"type":"Point","coordinates":[-81.6719327,30.3319666],"properties":{"name":"Jacksonville","country":"United States of America","capital":false}},{"type":"Point","coordinates":[-81.1099952,32.0211062],"properties":{"name":"Savannah","country":"United States of America","capital":false}},{"type":"Point","coordinates":[-81.03126182715303,33.996860925141384],"properties":{"name":"Columbia","country":"United States of America","capital":false}},{"type":"Point","coordinates":[-86.1719939,39.7519343],"properties":{"name":"Indianapolis","country":"United States of America","capital":false}},{"type":"Point","coordinates":[-77.9450204,34.2255194],"properties":{"name":"Wilmington","country":"United States of America","capital":false}},{"type":"Point","coordinates":[-83.9200304,35.9700124],"properties":{"name":"Knoxville","country":"United States of America","capital":false}},{"type":"Point","coordinates":[-77.4519319,37.5519652],"properties":{"name":"Richmond","country":"United States of America","capital":false}},{"type":"Point","coordinates":[-81.6327281,38.349738],"properties":{"name":"Charleston","country":"United States of America","capital":false}},{"type":"Point","coordinates":[-76.6145820807727,39.28151578641361],"properties":{"name":"Baltimore","country":"United States of America","capital":false}},{"type":"Point","coordinates":[-76.1500137,43.0499937],"properties":{"name":"Syracuse","country":"United States of America","capital":false}},{"type":"Point","coordinates":[-67.6236091,5.6639036],"properties":{"name":"Puerto Ayacucho","country":"Venezuela","capital":false}},{"type":"Point","coordinates":[-61.5170309,10.6519971],"properties":{"name":"Port-of-Spain","country":"Trinidad and Tobago","capital":true}},{"type":"Point","coordinates":[-69.7799891,44.3105628],"properties":{"name":"Augusta","country":"United States of America","capital":false}},{"type":"Point","coordinates":[-84.3452757,46.4952615],"properties":{"name":"Sault Ste. Marie","country":"United States of America","capital":false}},{"type":"Point","coordinates":[1.1200244,7.5300429],"properties":{"name":"Atakpame","country":"Togo","capital":false}},{"type":"Point","coordinates":[10.6250256,35.8299951],"properties":{"name":"Sousse","country":"Tunisia","capital":false}},{"type":"Point","coordinates":[44.0374743,13.6063984],"properties":{"name":"Taizz","country":"Yemen","capital":false}},{"type":"Point","coordinates":[-135.3275494,57.0603977],"properties":{"name":"Sitka","country":"United States of America","capital":false}},{"type":"Point","coordinates":[24.0299955,49.8349801],"properties":{"name":"Lvov","country":"Ukraine","capital":false}},{"type":"Point","coordinates":[30.7080553,46.4919622],"properties":{"name":"Odessa","country":"Ukraine","capital":false}},{"type":"Point","coordinates":[28.6621675,50.2455752],"properties":{"name":"Zhytomyr","country":"Ukraine","capital":false}},{"type":"Point","coordinates":[34.9980777,48.4819182],"properties":{"name":"Dnipro","country":"Ukraine","capital":false}},{"type":"Point","coordinates":[37.8280342,48.0019475],"properties":{"name":"Donetsk","country":"Ukraine","capital":false}},{"type":"Point","coordinates":[36.2480789,50.0019288],"properties":{"name":"Kharkiv","country":"Ukraine","capital":false}},{"type":"Point","coordinates":[52.9696761,40.0230467],"properties":{"name":"Turkmenbasy","country":"Turkmenistan","capital":false}},{"type":"Point","coordinates":[64.4300101,39.7800124],"properties":{"name":"Bukhara","country":"Uzbekistan","capital":false}},{"type":"Point","coordinates":[59.6150069,42.4700033],"properties":{"name":"Nukus","country":"Uzbekistan","capital":false}},{"type":"Point","coordinates":[63.5800362,39.1100016],"properties":{"name":"Turkmenabat","country":"Turkmenistan","capital":false}},{"type":"Point","coordinates":[61.8333211,37.6000163],"properties":{"name":"Mary","country":"Turkmenistan","capital":false}},{"type":"Point","coordinates":[72.3399666,40.7900025],"properties":{"name":"Andijon","country":"Uzbekistan","capital":false}},{"type":"Point","coordinates":[106.6781469,20.8319522],"properties":{"name":"Haiphong","country":"Vietnam","capital":false}},{"type":"Point","coordinates":[108.2499711,16.0600391],"properties":{"name":"Da Nang","country":"Vietnam","capital":false}},{"type":"Point","coordinates":[28.4499841,-14.4400114],"properties":{"name":"Kabwe","country":"Zambia","capital":false}},{"type":"Point","coordinates":[28.2599698,-12.5499975],"properties":{"name":"Mufulira","country":"Zambia","capital":false}},{"type":"Point","coordinates":[28.220024,-12.8100333],"properties":{"name":"Kitwe","country":"Zambia","capital":false}},{"type":"Point","coordinates":[25.860013,-17.8600093],"properties":{"name":"Livingstone","country":"Zambia","capital":false}},{"type":"Point","coordinates":[31.1000032,-18.0000008],"properties":{"name":"Chitungwiza","country":"Zimbabwe","capital":false}},{"type":"Point","coordinates":[9.7080451,4.0623556],"properties":{"name":"Douala","country":"Cameroon","capital":false}},{"type":"Point","coordinates":[-1.9219426,52.4769198],"properties":{"name":"Birmingham","country":"United Kingdom","capital":false}},{"type":"Point","coordinates":[-5.928177644913072,54.594245156841886],"properties":{"name":"Belfast","country":"United Kingdom","capital":false}},{"type":"Point","coordinates":[27.1498482,38.4380955],"properties":{"name":"Izmir","country":"Turkey","capital":false}},{"type":"Point","coordinates":[29.0680521,40.2019327],"properties":{"name":"Bursa","country":"Turkey","capital":false}},{"type":"Point","coordinates":[36.3436625,41.2799984],"properties":{"name":"Samsun","country":"Turkey","capital":false}},{"type":"Point","coordinates":[32.4730639,37.8769583],"properties":{"name":"Konya","country":"Turkey","capital":false}},{"type":"Point","coordinates":[35.3180582,36.9969345],"properties":{"name":"Adana","country":"Turkey","capital":false}},{"type":"Point","coordinates":[32.2800345,2.779997],"properties":{"name":"Gulu","country":"Uganda","capital":false}},{"type":"Point","coordinates":[30.0585859,-1.9516442],"properties":{"name":"Kigali","country":"Rwanda","capital":true}},{"type":"Point","coordinates":[-54.2332894,3.8500092],"properties":{"name":"Cottica","country":"Suriname","capital":false}},{"type":"Point","coordinates":[-4.7700037,37.8799992],"properties":{"name":"Cordoba","country":"Spain","capital":false}},{"type":"Point","coordinates":[7.0964038,13.4916429],"properties":{"name":"Maradi","country":"Niger","capital":false}},{"type":"Point","coordinates":[5.2599267,14.8999807],"properties":{"name":"Tahoua","country":"Niger","capital":false}},{"type":"Point","coordinates":[28.6099743,44.2026624],"properties":{"name":"Constanta","country":"Romania","capital":false}},{"type":"Point","coordinates":[22.1583783,65.5966348],"properties":{"name":"Lulea","country":"Sweden","capital":false}},{"type":"Point","coordinates":[17.3166585,62.4000529],"properties":{"name":"Sundsvall","country":"Sweden","capital":false}},{"type":"Point","coordinates":[27.5749471,47.168347],"properties":{"name":"Iasi","country":"Romania","capital":false}},{"type":"Point","coordinates":[99.3401273,9.1500991],"properties":{"name":"Surat Thani","country":"Thailand","capital":false}},{"type":"Point","coordinates":[98.9800459,18.7999752],"properties":{"name":"Chiang Mai","country":"Thailand","capital":false}},{"type":"Point","coordinates":[102.1000105,15.0000263],"properties":{"name":"Nakhon Ratchasima","country":"Thailand","capital":false}},{"type":"Point","coordinates":[31.1333345,-26.3166508],"properties":{"name":"Mbabane","country":"eSwatini","capital":true}},{"type":"Point","coordinates":[-80.6299728,-5.2100321],"properties":{"name":"Piura","country":"Peru","capital":false}},{"type":"Point","coordinates":[-71.5319573,-16.418048],"properties":{"name":"Arequipa","country":"Peru","capital":false}},{"type":"Point","coordinates":[-78.5699952,-9.0700032],"properties":{"name":"Chimbote","country":"Peru","capital":false}},{"type":"Point","coordinates":[-74.534996,-8.3689091],"properties":{"name":"Pucallpa","country":"Peru","capital":false}},{"type":"Point","coordinates":[-73.2500098,-3.7500179],"properties":{"name":"Iquitos","country":"Peru","capital":false}},{"type":"Point","coordinates":[-75.20002,-12.0800004],"properties":{"name":"Huancayo","country":"Peru","capital":false}},{"type":"Point","coordinates":[-54.6160568,-25.5166996],"properties":{"name":"Ciudad del Este","country":"Paraguay","capital":false}},{"type":"Point","coordinates":[-25.6665835,37.7483018],"properties":{"name":"Ponta Delgada","country":"Portugal","capital":false}},{"type":"Point","coordinates":[-8.7299945,42.2200185],"properties":{"name":"Vigo","country":"Spain","capital":false}},{"type":"Point","coordinates":[-2.9299868,43.2499815],"properties":{"name":"Bilbao","country":"Spain","capital":false}},{"type":"Point","coordinates":[-16.1000098,14.1499748],"properties":{"name":"Kaolack","country":"Senegal","capital":false}},{"type":"Point","coordinates":[-13.4999876,16.1500078],"properties":{"name":"Kaedi","country":"Senegal","capital":false}},{"type":"Point","coordinates":[22.440015,13.4500175],"properties":{"name":"Geneina","country":"Sudan","capital":false}},{"type":"Point","coordinates":[39.5780565,24.5019349],"properties":{"name":"Medina","country":"Saudi Arabia","capital":false}},{"type":"Point","coordinates":[36.5549674,28.3838347],"properties":{"name":"Tabuk","country":"Saudi Arabia","capital":false}},{"type":"Point","coordinates":[31.5800256,4.8299752],"properties":{"name":"Juba","country":"South Sudan","capital":true}},{"type":"Point","coordinates":[31.6559899,9.5368972],"properties":{"name":"Malakal","country":"South Sudan","capital":false}},{"type":"Point","coordinates":[32.4800223,15.6166811],"properties":{"name":"Omdurman","country":"Sudan","capital":false}},{"type":"Point","coordinates":[30.216698,13.1832896],"properties":{"name":"El Obeid","country":"Sudan","capital":false}},{"type":"Point","coordinates":[4.2699613,52.0800368],"properties":{"name":"The Hague","country":"Netherlands","capital":false}},{"type":"Point","coordinates":[7.9749838798265404,58.14561960901902],"properties":{"name":"Kristiansand","country":"Norway","capital":false}},{"type":"Point","coordinates":[14.514969,46.0552883],"properties":{"name":"Ljubljana","country":"Slovenia","capital":true}},{"type":"Point","coordinates":[17.1169808,48.1500183],"properties":{"name":"Bratislava","country":"Slovakia","capital":true}},{"type":"Point","coordinates":[23.6880009,70.6612799],"properties":{"name":"Hammerfest","country":"Norway","capital":false}},{"type":"Point","coordinates":[51.5329679,25.286556],"properties":{"name":"Doha","country":"Qatar","capital":true}},{"type":"Point","coordinates":[67.023048,30.2219475],"properties":{"name":"Quetta","country":"Pakistan","capital":false}},{"type":"Point","coordinates":[68.2067822,27.561766],"properties":{"name":"Larkana","country":"Pakistan","capital":false}},{"type":"Point","coordinates":[17.8832906,-29.6667305],"properties":{"name":"Springbok","country":"South Africa","capital":false}},{"type":"Point","coordinates":[21.2300114,-28.4600342],"properties":{"name":"Upington","country":"South Africa","capital":false}},{"type":"Point","coordinates":[19.4399397,-33.6400281],"properties":{"name":"Worcester","country":"South Africa","capital":false}},{"type":"Point","coordinates":[22.4500402,-33.950035],"properties":{"name":"George","country":"South Africa","capital":false}},{"type":"Point","coordinates":[33.5800069,-16.170035],"properties":{"name":"Tete","country":"Mozambique","capital":false}},{"type":"Point","coordinates":[40.5323474,-12.983046],"properties":{"name":"Pemba","country":"Mozambique","capital":false}},{"type":"Point","coordinates":[39.2930432,-15.1360412],"properties":{"name":"Nampula","country":"Mozambique","capital":false}},{"type":"Point","coordinates":[26.7299857,-27.9699866],"properties":{"name":"Welkom","country":"South Africa","capital":false}},{"type":"Point","coordinates":[33.6400032,-25.0399845],"properties":{"name":"Xai-Xai","country":"Mozambique","capital":false}},{"type":"Point","coordinates":[145.3854821,-6.0833122],"properties":{"name":"Goroka","country":"Papua New Guinea","capital":false}},{"type":"Point","coordinates":[144.2168196,-5.8632222],"properties":{"name":"Mt. Hagen","country":"Papua New Guinea","capital":false}},{"type":"Point","coordinates":[152.1434307,-4.2054904],"properties":{"name":"Rabaul","country":"Papua New Guinea","capital":false}},{"type":"Point","coordinates":[146.9900354,-6.7329883],"properties":{"name":"Lae","country":"Papua New Guinea","capital":false}},{"type":"Point","coordinates":[-82.4333252,8.4333211],"properties":{"name":"David","country":"Panama","capital":false}},{"type":"Point","coordinates":[-1.9099716,34.690013],"properties":{"name":"Oujda","country":"Morocco","capital":false}},{"type":"Point","coordinates":[-9.2399893,32.3199768],"properties":{"name":"Safi","country":"Morocco","capital":false}},{"type":"Point","coordinates":[19.2663069,42.4659725],"properties":{"name":"Podgorica","country":"Montenegro","capital":true}},{"type":"Point","coordinates":[36.8899857,-17.8800081],"properties":{"name":"Quelimane","country":"Mozambique","capital":false}},{"type":"Point","coordinates":[27.8700195,-32.9700431],"properties":{"name":"East London","country":"South Africa","capital":false}},{"type":"Point","coordinates":[25.0099873,-31.5000036],"properties":{"name":"Middelburg","country":"South Africa","capital":false}},{"type":"Point","coordinates":[43.6179471,43.4981059],"properties":{"name":"Naltchik","country":"Russia","capital":false}},{"type":"Point","coordinates":[41.9800109,45.0500008],"properties":{"name":"Stavropol","country":"Russia","capital":false}},{"type":"Point","coordinates":[177.6999955,64.7332955],"properties":{"name":"Ugolnye Kopi","country":"Russia","capital":false}},{"type":"Point","coordinates":[20.4973429,54.7000061],"properties":{"name":"Kaliningrad","country":"Russia","capital":false}},{"type":"Point","coordinates":[28.3299397,57.829996],"properties":{"name":"Pskov","country":"Russia","capital":false}},{"type":"Point","coordinates":[34.4299808,53.2599907],"properties":{"name":"Bryansk","country":"Russia","capital":false}},{"type":"Point","coordinates":[32.0473356,54.7826884],"properties":{"name":"Smolensk","country":"Russia","capital":false}},{"type":"Point","coordinates":[34.36122287793718,61.781318478265966],"properties":{"name":"Petrozavodsk","country":"Russia","capital":false}},{"type":"Point","coordinates":[35.8899951,56.8599776],"properties":{"name":"Tver","country":"Russia","capital":false}},{"type":"Point","coordinates":[39.9199816,59.2099892],"properties":{"name":"Vologda","country":"Russia","capital":false}},{"type":"Point","coordinates":[39.8700105,57.6199829],"properties":{"name":"Yaroslavl","country":"Russia","capital":false}},{"type":"Point","coordinates":[39.7107099,47.2365937],"properties":{"name":"Rostov","country":"Russia","capital":false}},{"type":"Point","coordinates":[39.7299674,43.5900124],"properties":{"name":"Sochi","country":"Russia","capital":false}},{"type":"Point","coordinates":[39.0000378,45.0199768],"properties":{"name":"Krasnodar","country":"Russia","capital":false}},{"type":"Point","coordinates":[44.9999816,53.1800214],"properties":{"name":"Penza","country":"Russia","capital":false}},{"type":"Point","coordinates":[39.7199939,54.6199593],"properties":{"name":"Ryazan","country":"Russia","capital":false}},{"type":"Point","coordinates":[39.18684252206281,51.66539025109858],"properties":{"name":"Voronezh","country":"Russia","capital":false}},{"type":"Point","coordinates":[58.9800069,53.4226939],"properties":{"name":"Magnitogorsk","country":"Russia","capital":false}},{"type":"Point","coordinates":[61.4367223,55.1569371],"properties":{"name":"Chelyabinsk","country":"Russia","capital":false}},{"type":"Point","coordinates":[64.0099841,67.5],"properties":{"name":"Vorkuta","country":"Russia","capital":false}},{"type":"Point","coordinates":[49.6699808,58.5900529],"properties":{"name":"Kirov","country":"Russia","capital":false}},{"type":"Point","coordinates":[59.9749849,57.9200163],"properties":{"name":"Nizhny Tagil","country":"Russia","capital":false}},{"type":"Point","coordinates":[48.054989,46.3486554],"properties":{"name":"Astrakhan","country":"Russia","capital":false}},{"type":"Point","coordinates":[55.1100105,51.7799776],"properties":{"name":"Orenburg","country":"Russia","capital":false}},{"type":"Point","coordinates":[46.0280504,51.5819357],"properties":{"name":"Saratov","country":"Russia","capital":false}},{"type":"Point","coordinates":[48.4100061,54.329977],"properties":{"name":"Ulyanovsk","country":"Russia","capital":false}},{"type":"Point","coordinates":[73.3980077,54.9919343],"properties":{"name":"Omsk","country":"Russia","capital":false}},{"type":"Point","coordinates":[65.5299947,57.1400122],"properties":{"name":"Tyumen","country":"Russia","capital":false}},{"type":"Point","coordinates":[87.1149821,53.7500124],"properties":{"name":"Novokuznetsk","country":"Russia","capital":false}},{"type":"Point","coordinates":[86.08998,55.3399671],"properties":{"name":"Kemerovo","country":"Russia","capital":false}},{"type":"Point","coordinates":[45.6986987,43.3186853],"properties":{"name":"Groznyy","country":"Russia","capital":false}},{"type":"Point","coordinates":[80.6700008,7.2799807],"properties":{"name":"Kandy","country":"Sri Lanka","capital":false}},{"type":"Point","coordinates":[79.949993,6.9000039],"properties":{"name":"Sri Jawewardenepura Kotte","country":"Sri Lanka","capital":false}},{"type":"Point","coordinates":[127.4230822,36.3374915],"properties":{"name":"Daejeon","country":"South Korea","capital":false}},{"type":"Point","coordinates":[126.9084883,35.1729115],"properties":{"name":"Gwangju","country":"South Korea","capital":false}},{"type":"Point","coordinates":[129.0081017,35.0969988],"properties":{"name":"Busan","country":"South Korea","capital":false}},{"type":"Point","coordinates":[122.0780854,6.9219227],"properties":{"name":"Zamboanga","country":"Philippines","capital":false}},{"type":"Point","coordinates":[120.5936104,18.1988491],"properties":{"name":"Laoag","country":"Philippines","capital":false}},{"type":"Point","coordinates":[120.5699426,16.4299907],"properties":{"name":"Baguio City","country":"Philippines","capital":false}},{"type":"Point","coordinates":[125.1747261,6.1108272],"properties":{"name":"General Santos","country":"Philippines","capital":false}},{"type":"Point","coordinates":[102.6333113,57.9899603],"properties":{"name":"Ust-Ulimsk","country":"Russia","capital":false}},{"type":"Point","coordinates":[103.9200028,52.5600075],"properties":{"name":"Angarsk","country":"Russia","capital":false}},{"type":"Point","coordinates":[91.445002,53.7036845],"properties":{"name":"Abakan","country":"Russia","capital":false}},{"type":"Point","coordinates":[88.2249918,69.3400169],"properties":{"name":"Norilsk","country":"Russia","capital":false}},{"type":"Point","coordinates":[102.4650012,72.041144],"properties":{"name":"Khatanga","country":"Russia","capital":false}},{"type":"Point","coordinates":[94.3830656,51.7067005],"properties":{"name":"Kyzyl","country":"Russia","capital":false}},{"type":"Point","coordinates":[107.6249963,51.8249878],"properties":{"name":"Ulan Ude","country":"Russia","capital":false}},{"type":"Point","coordinates":[127.5333418,50.2666075],"properties":{"name":"Blagoveshchensk","country":"Russia","capital":false}},{"type":"Point","coordinates":[116.9166255,52.9833409],"properties":{"name":"Bukachacha","country":"Russia","capital":false}},{"type":"Point","coordinates":[135.5172473,44.5372156],"properties":{"name":"Dalnegorsk","country":"Russia","capital":false}},{"type":"Point","coordinates":[162.3335949,69.6510057],"properties":{"name":"Ambarchik","country":"Russia","capital":false}},{"type":"Point","coordinates":[134.6350272,67.6559853],"properties":{"name":"Batagay","country":"Russia","capital":false}},{"type":"Point","coordinates":[147.8945796,70.618311],"properties":{"name":"Chokurdakh","country":"Russia","capital":false}},{"type":"Point","coordinates":[143.1999825,64.5665873],"properties":{"name":"Ust Nera","country":"Russia","capital":false}},{"type":"Point","coordinates":[114.94703,60.7252714],"properties":{"name":"Lensk","country":"Russia","capital":false}},{"type":"Point","coordinates":[125.38939,58.6029979],"properties":{"name":"Aldan","country":"Russia","capital":false}},{"type":"Point","coordinates":[113.9613537,62.5400185],"properties":{"name":"Mirnyy","country":"Russia","capital":false}},{"type":"Point","coordinates":[123.3711153,66.7697087],"properties":{"name":"Zhigansk","country":"Russia","capital":false}},{"type":"Point","coordinates":[143.2170357,59.3830019],"properties":{"name":"Okhotsk","country":"Russia","capital":false}},{"type":"Point","coordinates":[135.1200105,48.4549868],"properties":{"name":"Khabarovsk","country":"Russia","capital":false}},{"type":"Point","coordinates":[142.9478531,53.5738991],"properties":{"name":"Okha","country":"Russia","capital":false}},{"type":"Point","coordinates":[142.7400105,46.9649744],"properties":{"name":"Yuzhno Sakhalinsk","country":"Russia","capital":false}},{"type":"Point","coordinates":[-115.481962,32.6519284],"properties":{"name":"Mexicali","country":"Mexico","capital":false}},{"type":"Point","coordinates":[-110.3199952,24.1399593],"properties":{"name":"La Paz","country":"Mexico","capital":false}},{"type":"Point","coordinates":[-103.4219487,25.5719988],"properties":{"name":"Torreon","country":"Mexico","capital":false}},{"type":"Point","coordinates":[-107.3819138,24.8319406],"properties":{"name":"Culiacan","country":"Mexico","capital":false}},{"type":"Point","coordinates":[-110.9449958,31.305],"properties":{"name":"Nogales","country":"Mexico","capital":false}},{"type":"Point","coordinates":[-110.954065,29.0988814],"properties":{"name":"Hermosillo","country":"Mexico","capital":false}},{"type":"Point","coordinates":[-110.8899862,27.9300122],"properties":{"name":"Guaymas","country":"Mexico","capital":false}},{"type":"Point","coordinates":[-101.0019414,22.1719221],"properties":{"name":"San Luis Potosi","country":"Mexico","capital":false}},{"type":"Point","coordinates":[-97.5000025,25.8799823],"properties":{"name":"Matamoros","country":"Mexico","capital":false}},{"type":"Point","coordinates":[-99.5500066,27.4999868],"properties":{"name":"Nuevo Laredo","country":"Mexico","capital":false}},{"type":"Point","coordinates":[-103.7200104,19.2299748],"properties":{"name":"Colima","country":"Mexico","capital":false}},{"type":"Point","coordinates":[-90.4999905,19.8299898],"properties":{"name":"Campeche","country":"Mexico","capital":false}},{"type":"Point","coordinates":[-96.6699498,17.0826898],"properties":{"name":"Oaxaca","country":"Mexico","capital":false}},{"type":"Point","coordinates":[-101.7019762,21.1519327],"properties":{"name":"Leon","country":"Mexico","capital":false}},{"type":"Point","coordinates":[13.1580671,11.851906],"properties":{"name":"Maiduguri","country":"Nigeria","capital":false}},{"type":"Point","coordinates":[7.0080549,4.8119481],"properties":{"name":"Port Harcourt","country":"Nigeria","capital":false}},{"type":"Point","coordinates":[8.5300114,7.7299791],"properties":{"name":"Makurdi","country":"Nigeria","capital":false}},{"type":"Point","coordinates":[3.9280362,7.3819721],"properties":{"name":"Ibadan","country":"Nigeria","capital":false}},{"type":"Point","coordinates":[4.2380431,8.1319522],"properties":{"name":"Ogbomosho","country":"Nigeria","capital":false}},{"type":"Point","coordinates":[5.7599996,5.5199589],"properties":{"name":"Warri","country":"Nigeria","capital":false}},{"type":"Point","coordinates":[7.4380545,10.5219613],"properties":{"name":"Kaduna","country":"Nigeria","capital":false}},{"type":"Point","coordinates":[18.6400402,54.3599752],"properties":{"name":"Gdansk","country":"Poland","capital":false}},{"type":"Point","coordinates":[19.9580655,50.0619251],"properties":{"name":"Krakow","country":"Poland","capital":false}},{"type":"Point","coordinates":[104.4402811,43.5835529],"properties":{"name":"Dalandzadgad","country":"Mongolia","capital":false}},{"type":"Point","coordinates":[127.4308158,39.1604895],"properties":{"name":"Wonsan","country":"North Korea","capital":false}},{"type":"Point","coordinates":[124.4212837,40.0858594],"properties":{"name":"Sinuiju","country":"North Korea","capital":false}},{"type":"Point","coordinates":[91.6332592,48.0166415],"properties":{"name":"Dund-Us","country":"Mongolia","capital":false}},{"type":"Point","coordinates":[114.5060233,48.0665867],"properties":{"name":"Choybalsan","country":"Mongolia","capital":false}},{"type":"Point","coordinates":[15.1594258,-26.6480001],"properties":{"name":"Luderitz","country":"Namibia","capital":false}},{"type":"Point","coordinates":[14.5053055,-22.9575277],"properties":{"name":"Walvis Bay","country":"Namibia","capital":false}},{"type":"Point","coordinates":[32.9300207,-2.5200154],"properties":{"name":"Mwanza","country":"Tanzania","capital":false}},{"type":"Point","coordinates":[37.6600162,-6.8200114],"properties":{"name":"Morogoro","country":"Tanzania","capital":false}},{"type":"Point","coordinates":[35.7500036,-6.1833061],"properties":{"name":"Dodoma","country":"Tanzania","capital":false}},{"type":"Point","coordinates":[36.6699991,-3.3600158],"properties":{"name":"Arusha","country":"Tanzania","capital":false}},{"type":"Point","coordinates":[7.4669755,46.9166828],"properties":{"name":"Bern","country":"Switzerland","capital":true}},{"type":"Point","coordinates":[13.023059685006762,55.59942395416559],"properties":{"name":"Malmo","country":"Sweden","capital":false}},{"type":"Point","coordinates":[-13.2000059,27.1499823],"properties":{"name":"Laayoune","country":"Morocco","capital":false}},{"type":"Point","coordinates":[127.3630163,0.7929606],"properties":{"name":"Ternate","country":"Indonesia","capital":false}},{"type":"Point","coordinates":[128.2000195,-3.7166866],"properties":{"name":"Ambon","country":"Indonesia","capital":false}},{"type":"Point","coordinates":[118.7666418,-8.4499894],"properties":{"name":"Raba","country":"Indonesia","capital":false}},{"type":"Point","coordinates":[140.69998,-2.5329862],"properties":{"name":"Jayapura","country":"Indonesia","capital":false}},{"type":"Point","coordinates":[11.2500004,43.7800008],"properties":{"name":"Florence","country":"Italy","capital":false}},{"type":"Point","coordinates":[15.0799991,37.4999707],"properties":{"name":"Catania","country":"Italy","capital":false}},{"type":"Point","coordinates":[21.1659843,42.6667096],"properties":{"name":"Pristina","country":"Kosovo","capital":true}},{"type":"Point","coordinates":[37.6400175,0.0599821],"properties":{"name":"Meru","country":"Kenya","capital":false}},{"type":"Point","coordinates":[35.2699812,0.5200057],"properties":{"name":"Eldoret","country":"Kenya","capital":false}},{"type":"Point","coordinates":[95.3200109,5.5499829],"properties":{"name":"Banda Aceh","country":"Indonesia","capital":false}},{"type":"Point","coordinates":[100.3293679,5.4136132],"properties":{"name":"George Town","country":"Malaysia","capital":false}},{"type":"Point","coordinates":[100.4500337,38.9299868],"properties":{"name":"Zhangye","country":"China","capital":false}},{"type":"Point","coordinates":[102.6410111,37.9280066],"properties":{"name":"Wuwei","country":"China","capital":false}},{"type":"Point","coordinates":[94.6620149,40.1426776],"properties":{"name":"Dunhuang","country":"China","capital":false}},{"type":"Point","coordinates":[105.9180382,34.6019644],"properties":{"name":"Tianshui","country":"China","capital":false}},{"type":"Point","coordinates":[98.2666011,36.1665896],"properties":{"name":"Dulan","country":"China","capital":false}},{"type":"Point","coordinates":[94.8833451,36.416626],"properties":{"name":"Golmud","country":"China","capital":false}},{"type":"Point","coordinates":[110.1480643,22.6319198],"properties":{"name":"Yulin","country":"China","capital":false}},{"type":"Point","coordinates":[106.6133268,23.8997156],"properties":{"name":"Bose","country":"China","capital":false}},{"type":"Point","coordinates":[111.3200162,23.4800255],"properties":{"name":"Wuzhou","country":"China","capital":false}},{"type":"Point","coordinates":[104.8313862,26.5963807],"properties":{"name":"Liupanshui","country":"China","capital":false}},{"type":"Point","coordinates":[118.5780407,24.9019622],"properties":{"name":"Quanzhou","country":"China","capital":false}},{"type":"Point","coordinates":[117.2780683,31.8519772],"properties":{"name":"Hefei","country":"China","capital":false}},{"type":"Point","coordinates":[116.976943,33.638057],"properties":{"name":"Suzhou","country":"China","capital":false}},{"type":"Point","coordinates":[110.3780761,21.2019296],"properties":{"name":"Zhanjiang","country":"China","capital":false}},{"type":"Point","coordinates":[113.5799816,24.7999707],"properties":{"name":"Shaoguan","country":"China","capital":false}},{"type":"Point","coordinates":[116.8300158,-1.2500154],"properties":{"name":"Balikpapan","country":"Indonesia","capital":false}},{"type":"Point","coordinates":[110.3299991,1.5299699],"properties":{"name":"Kuching","country":"Malaysia","capital":false}},{"type":"Point","coordinates":[49.3115261,-12.2765015],"properties":{"name":"Antsiranana","country":"Madagascar","capital":false}},{"type":"Point","coordinates":[47.0832653,-21.4333313],"properties":{"name":"Fianarantsoa","country":"Madagascar","capital":false}},{"type":"Point","coordinates":[46.3450158,-15.6700138],"properties":{"name":"Mahajanga","country":"Madagascar","capital":false}},{"type":"Point","coordinates":[43.6899841,-23.3568314],"properties":{"name":"Toliara","country":"Madagascar","capital":false}},{"type":"Point","coordinates":[110.8250077,-7.5649788],"properties":{"name":"Surakarta","country":"Indonesia","capital":false}},{"type":"Point","coordinates":[105.2680521,-5.4280728],"properties":{"name":"Bandar Lampung","country":"Indonesia","capital":false}},{"type":"Point","coordinates":[107.6500077,-2.7500272],"properties":{"name":"Tanjungpandan","country":"Indonesia","capital":false}},{"type":"Point","coordinates":[112.6080692,-7.9780464],"properties":{"name":"Malang","country":"Indonesia","capital":false}},{"type":"Point","coordinates":[123.5829886,-10.1786694],"properties":{"name":"Kupang","country":"Indonesia","capital":false}},{"type":"Point","coordinates":[119.6333073,-4.0166683],"properties":{"name":"Parepare","country":"Indonesia","capital":false}},{"type":"Point","coordinates":[-78.9999948,-2.8999922],"properties":{"name":"Cuenca","country":"Ecuador","capital":false}},{"type":"Point","coordinates":[-90.3499996,-0.533315],"properties":{"name":"Santa Cruz","country":"Ecuador","capital":false}},{"type":"Point","coordinates":[-83.0333403,10.0000214],"properties":{"name":"Puerto Limon","country":"Costa Rica","capital":false}},{"type":"Point","coordinates":[-75.8213257,20.0250167],"properties":{"name":"Santiago de Cuba","country":"Cuba","capital":false}},{"type":"Point","coordinates":[-70.6700122,19.50001],"properties":{"name":"Santiago","country":"Dominican Republic","capital":false}},{"type":"Point","coordinates":[-75.5200004,5.059987],"properties":{"name":"Manizales","country":"Colombia","capital":false}},{"type":"Point","coordinates":[-77.2811074,1.2136068],"properties":{"name":"Pasto","country":"Colombia","capital":false}},{"type":"Point","coordinates":[-74.8019127,10.9619345],"properties":{"name":"Barranquilla","country":"Colombia","capital":false}},{"type":"Point","coordinates":[-61.387013,15.3010156],"properties":{"name":"Roseau","country":"Dominica","capital":true}},{"type":"Point","coordinates":[18.2600118,0.040035],"properties":{"name":"Mbandaka","country":"Congo (Kinshasa)","capital":false}},{"type":"Point","coordinates":[16.090015,8.5499807],"properties":{"name":"Moundou","country":"Chad","capital":false}},{"type":"Point","coordinates":[32.5499406,30.004976],"properties":{"name":"Suez","country":"Egypt","capital":false}},{"type":"Point","coordinates":[32.2900081,31.2599898],"properties":{"name":"Bur Said","country":"Egypt","capital":false}},{"type":"Point","coordinates":[30.8399674,29.3100314],"properties":{"name":"El Faiyum","country":"Egypt","capital":false}},{"type":"Point","coordinates":[32.8989115,24.0875078],"properties":{"name":"Aswan","country":"Egypt","capital":false}},{"type":"Point","coordinates":[31.1799467,27.1899799],"properties":{"name":"Asyut","country":"Egypt","capital":false}},{"type":"Point","coordinates":[25.2200004,0.5200057],"properties":{"name":"Kisangani","country":"Congo (Kinshasa)","capital":false}},{"type":"Point","coordinates":[42.729991,13.0100185],"properties":{"name":"Assab","country":"Eritrea","capital":false}},{"type":"Point","coordinates":[43.1480017,11.5950145],"properties":{"name":"Djibouti","country":"Djibouti","capital":true}},{"type":"Point","coordinates":[13.7500028,51.0499705],"properties":{"name":"Dresden","country":"Germany","capital":false}},{"type":"Point","coordinates":[88.8833496,29.2500092],"properties":{"name":"Xigaze","country":"China","capital":false}},{"type":"Point","coordinates":[77.2500028,38.4261416],"properties":{"name":"Shache","country":"China","capital":false}},{"type":"Point","coordinates":[81.3500109,43.9000193],"properties":{"name":"Yining","country":"China","capital":false}},{"type":"Point","coordinates":[88.1166263,47.8665989],"properties":{"name":"Altay","country":"China","capital":false}},{"type":"Point","coordinates":[101.6950374044619,2.9325152122667406],"properties":{"name":"Putrajaya","country":"Malaysia","capital":false}},{"type":"Point","coordinates":[106.7690279,39.2332758],"properties":{"name":"Shizuishan","country":"China","capital":false}},{"type":"Point","coordinates":[109.7332914,38.2833079],"properties":{"name":"Yulin","country":"China","capital":false}},{"type":"Point","coordinates":[109.0200016,32.6799807],"properties":{"name":"Ankang","country":"China","capital":false}},{"type":"Point","coordinates":[111.2099971,35.6199821],"properties":{"name":"Houma","country":"China","capital":false}},{"type":"Point","coordinates":[113.0980651,29.3819988],"properties":{"name":"Yueyang","country":"China","capital":false}},{"type":"Point","coordinates":[112.5880704,26.8819705],"properties":{"name":"Hengyang","country":"China","capital":false}},{"type":"Point","coordinates":[104.68999287876282,31.46482758129281],"properties":{"name":"Mianyang","country":"China","capital":false}},{"type":"Point","coordinates":[102.2999983,27.8800153],"properties":{"name":"Xichang","country":"China","capital":false}},{"type":"Point","coordinates":[99.1500097,25.119977],"properties":{"name":"Baoshan","country":"China","capital":false}},{"type":"Point","coordinates":[103.1500756,23.3799799],"properties":{"name":"Gejiu","country":"China","capital":false}},{"type":"Point","coordinates":[114.4780325,38.0519605],"properties":{"name":"Shijiazhuang","country":"China","capital":false}},{"type":"Point","coordinates":[114.4780325,36.5819211],"properties":{"name":"Handan","country":"China","capital":false}},{"type":"Point","coordinates":[122.9380846,41.1169672],"properties":{"name":"Anshan","country":"China","capital":false}},{"type":"Point","coordinates":[121.627885,38.9247843],"properties":{"name":"Dalian","country":"China","capital":false}},{"type":"Point","coordinates":[120.3280631,36.0919251],"properties":{"name":"Qingdao","country":"China","capital":false}},{"type":"Point","coordinates":[118.3280301,35.0819351],"properties":{"name":"Linyi","country":"China","capital":false}},{"type":"Point","coordinates":[119.06596724668917,33.58516490333014],"properties":{"name":"Huaiyin","country":"China","capital":false}},{"type":"Point","coordinates":[120.6481469,28.0219268],"properties":{"name":"Wenzhou","country":"China","capital":false}},{"type":"Point","coordinates":[121.5480919,29.8819166],"properties":{"name":"Ningbo","country":"China","capital":false}},{"type":"Point","coordinates":[130.4080679,33.5969611],"properties":{"name":"Fukuoka","country":"Japan","capital":false}},{"type":"Point","coordinates":[131.418376,31.9182442],"properties":{"name":"Miyazaki","country":"Japan","capital":false}},{"type":"Point","coordinates":[127.6729716,26.2071717],"properties":{"name":"Naha","country":"Japan","capital":false}},{"type":"Point","coordinates":[133.5375232,33.5624333],"properties":{"name":"Kochi","country":"Japan","capital":false}},{"type":"Point","coordinates":[123.0700484,0.549978],"properties":{"name":"Gorontalo","country":"Indonesia","capital":false}},{"type":"Point","coordinates":[122.268048,43.6219048],"properties":{"name":"Tongliao","country":"China","capital":false}},{"type":"Point","coordinates":[111.6580496,40.8219207],"properties":{"name":"Hohhot","country":"China","capital":false}},{"type":"Point","coordinates":[118.9480439,42.2719613],"properties":{"name":"Chifeng","country":"China","capital":false}},{"type":"Point","coordinates":[122.0800313,46.0800155],"properties":{"name":"Ulanhot","country":"China","capital":false}},{"type":"Point","coordinates":[119.7000215,49.1999801],"properties":{"name":"Hailar","country":"China","capital":false}},{"type":"Point","coordinates":[130.3480716,46.8319672],"properties":{"name":"Jiamusi","country":"China","capital":false}},{"type":"Point","coordinates":[126.52860364849957,48.246263385961704],"properties":{"name":"Beian","country":"China","capital":false}},{"type":"Point","coordinates":[124.9980622,46.581905],"properties":{"name":"Daqing","country":"China","capital":false}},{"type":"Point","coordinates":[130.9680854,45.3019056],"properties":{"name":"Jixi","country":"China","capital":false}},{"type":"Point","coordinates":[136.9130456,35.1569434],"properties":{"name":"Nagoya","country":"Japan","capital":false}},{"type":"Point","coordinates":[138.1700052,36.6499968],"properties":{"name":"Nagano","country":"Japan","capital":false}},{"type":"Point","coordinates":[144.3746911,42.9749595],"properties":{"name":"Kushiro","country":"Japan","capital":false}},{"type":"Point","coordinates":[140.7399776,41.7949799],"properties":{"name":"Hakodate","country":"Japan","capital":false}},{"type":"Point","coordinates":[135.7480521,35.0319381],"properties":{"name":"Kyoto","country":"Japan","capital":false}},{"type":"Point","coordinates":[140.86966685536837,38.2684409197744],"properties":{"name":"Sendai","country":"Japan","capital":false}},{"type":"Point","coordinates":[139.8500577,38.9200391],"properties":{"name":"Sakata","country":"Japan","capital":false}},{"type":"Point","coordinates":[17.3799621,-3.3099931],"properties":{"name":"Bandundu","country":"Congo (Kinshasa)","capital":false}},{"type":"Point","coordinates":[22.3980716,-5.8880964],"properties":{"name":"Kananga","country":"Congo (Kinshasa)","capital":false}},{"type":"Point","coordinates":[26.6600158,-4.4500268],"properties":{"name":"Kasongo","country":"Congo (Kinshasa)","capital":false}},{"type":"Point","coordinates":[23.59805,-6.1480806],"properties":{"name":"Mbuji-Mayi","country":"Congo (Kinshasa)","capital":false}},{"type":"Point","coordinates":[29.2000158,-5.9332955],"properties":{"name":"Kalemie","country":"Congo (Kinshasa)","capital":false}},{"type":"Point","coordinates":[29.2800109,0.1300037],"properties":{"name":"Butembo","country":"Congo (Kinshasa)","capital":false}},{"type":"Point","coordinates":[29.2217868,-1.6787991],"properties":{"name":"Goma","country":"Congo (Kinshasa)","capital":false}},{"type":"Point","coordinates":[34.01998,-11.4599866],"properties":{"name":"Mzuzu","country":"Malawi","capital":false}},{"type":"Point","coordinates":[34.9899467,-15.7900065],"properties":{"name":"Blantyre","country":"Malawi","capital":false}},{"type":"Point","coordinates":[-91.5200057,14.8299591],"properties":{"name":"Quetzaltenango","country":"Guatemala","capital":false}},{"type":"Point","coordinates":[-16.5917015,13.4538765],"properties":{"name":"Banjul","country":"The Gambia","capital":true}},{"type":"Point","coordinates":[77.3147208,28.4352792],"properties":{"name":"Faridabad","country":"India","capital":false}},{"type":"Point","coordinates":[74.82830910981222,34.069473874645354],"properties":{"name":"Srinagar","country":"India","capital":false}},{"type":"Point","coordinates":[80.6280574,16.5219052],"properties":{"name":"Vijayawada","country":"India","capital":false}},{"type":"Point","coordinates":[76.92519070332577,8.515520591980557],"properties":{"name":"Thiruvananthapuram","country":"India","capital":false}},{"type":"Point","coordinates":[76.2219697,10.0169534],"properties":{"name":"Kochi","country":"India","capital":false}},{"type":"Point","coordinates":[85.8899406,20.4700025],"properties":{"name":"Cuttack","country":"India","capital":false}},{"type":"Point","coordinates":[75.1230704,15.3619243],"properties":{"name":"Hubballi","country":"India","capital":false}},{"type":"Point","coordinates":[74.8499943,12.9000252],"properties":{"name":"Mangaluru","country":"India","capital":false}},{"type":"Point","coordinates":[76.6580671,12.3119296],"properties":{"name":"Mysuru","country":"India","capital":false}},{"type":"Point","coordinates":[76.8200032,17.3499603],"properties":{"name":"Kalaburagi","country":"India","capital":false}},{"type":"Point","coordinates":[74.2200069,16.7],"properties":{"name":"Kolhapur","country":"India","capital":false}},{"type":"Point","coordinates":[77.30833720799332,19.19725927369086],"properties":{"name":"Nanded","country":"India","capital":false}},{"type":"Point","coordinates":[77.0100175,20.7099878],"properties":{"name":"Akola","country":"India","capital":false}},{"type":"Point","coordinates":[91.7680492,26.1619628],"properties":{"name":"Guwahati","country":"India","capital":false}},{"type":"Point","coordinates":[13.2800057,-4.1800175],"properties":{"name":"Kayes","country":"Congo (Brazzaville)","capital":false}},{"type":"Point","coordinates":[13.5832946,-1.6332995],"properties":{"name":"Franceville","country":"Gabon","capital":false}},{"type":"Point","coordinates":[-0.5969589,44.8519589],"properties":{"name":"Bordeaux","country":"France","capital":false}},{"type":"Point","coordinates":[5.3730643,43.2919249],"properties":{"name":"Marseille","country":"France","capital":false}},{"type":"Point","coordinates":[0.1049701,49.5049744],"properties":{"name":"Le Havre","country":"France","capital":false}},{"type":"Point","coordinates":[-0.0500076,16.2665898],"properties":{"name":"Gao","country":"Mali","capital":false}},{"type":"Point","coordinates":[-72.0700043,-45.5699975],"properties":{"name":"Coihaique","country":"Chile","capital":false}},{"type":"Point","coordinates":[-70.2899838,-18.500022],"properties":{"name":"Arica","country":"Chile","capital":false}},{"type":"Point","coordinates":[-70.32995479284354,-27.371778559189842],"properties":{"name":"Copiapo","country":"Chile","capital":false}},{"type":"Point","coordinates":[-71.2499768,-29.8999979],"properties":{"name":"La Serena","country":"Chile","capital":false}},{"type":"Point","coordinates":[-72.34692448268574,-37.47974114915774],"properties":{"name":"Los Angeles","country":"Chile","capital":false}},{"type":"Point","coordinates":[-45.4166183,61.1665882],"properties":{"name":"Narsarsuaq","country":"Greenland","capital":false}},{"type":"Point","coordinates":[-53.6666057,66.9500078],"properties":{"name":"Sisimiut","country":"Greenland","capital":false}},{"type":"Point","coordinates":[-56.1416753,72.7093667],"properties":{"name":"Upernavik","country":"Greenland","capital":false}},{"type":"Point","coordinates":[-69.2296403893379,77.4665495567926],"properties":{"name":"Qaanaaq","country":"Greenland","capital":false}},{"type":"Point","coordinates":[-17.0560238,20.9000021],"properties":{"name":"Nouadhibou","country":"Mauritania","capital":false}},{"type":"Point","coordinates":[-11.44001,14.4499823],"properties":{"name":"Kayes","country":"Mali","capital":false}},{"type":"Point","coordinates":[-9.6166588,16.6665912],"properties":{"name":"Ayoun el Atrous","country":"Mauritania","capital":false}},{"type":"Point","coordinates":[-6.2600161,13.4399923],"properties":{"name":"Segou","country":"Mali","capital":false}},{"type":"Point","coordinates":[21.4334615,42.0000061],"properties":{"name":"Skopje","country":"North Macedonia","capital":true}},{"type":"Point","coordinates":[23.289989,24.1999815],"properties":{"name":"Al Jawf","country":"Libya","capital":false}},{"type":"Point","coordinates":[15.8000069,26.3666451],"properties":{"name":"Tmassah","country":"Libya","capital":false}},{"type":"Point","coordinates":[15.0999979,32.3799732],"properties":{"name":"Misratah","country":"Libya","capital":false}},{"type":"Point","coordinates":[12.0791487,32.9344096],"properties":{"name":"Zuwarah","country":"Libya","capital":false}},{"type":"Point","coordinates":[44.3922668,35.4722392],"properties":{"name":"Kirkuk","country":"Iraq","capital":false}},{"type":"Point","coordinates":[43.1430586,36.3469483],"properties":{"name":"Mosul","country":"Iraq","capital":false}},{"type":"Point","coordinates":[44.3353711,32.0003323],"properties":{"name":"An Najaf","country":"Iraq","capital":false}},{"type":"Point","coordinates":[37.3832889,11.6000529],"properties":{"name":"Bahir Dar","country":"Ethiopia","capital":false}},{"type":"Point","coordinates":[39.4699833,13.4999886],"properties":{"name":"Mekele","country":"Ethiopia","capital":false}},{"type":"Point","coordinates":[41.8600183,9.5899947],"properties":{"name":"Dire Dawa","country":"Ethiopia","capital":false}},{"type":"Point","coordinates":[25.7159391,66.5000352],"properties":{"name":"Rovaniemi","country":"Finland","capital":false}},{"type":"Point","coordinates":[21.6000146,63.0999844],"properties":{"name":"Vaasa","country":"Finland","capital":false}},{"type":"Point","coordinates":[23.7500126,61.5000045],"properties":{"name":"Tampere","country":"Finland","capital":false}},{"type":"Point","coordinates":[57.1699882,50.2800175],"properties":{"name":"Aqtobe","country":"Kazakhstan","capital":false}},{"type":"Point","coordinates":[63.1300378,52.9526968],"properties":{"name":"Rudny","country":"Kazakhstan","capital":false}},{"type":"Point","coordinates":[65.4649857,44.8000161],"properties":{"name":"Qyzylorda","country":"Kazakhstan","capital":false}},{"type":"Point","coordinates":[51.9200244,47.1126915],"properties":{"name":"Atyrau","country":"Kazakhstan","capital":false}},{"type":"Point","coordinates":[75.3199397,51.7299807],"properties":{"name":"Ekibastuz","country":"Kazakhstan","capital":false}},{"type":"Point","coordinates":[76.9500211,52.2999976],"properties":{"name":"Pavlodar","country":"Kazakhstan","capital":false}},{"type":"Point","coordinates":[80.2750378,50.4349951],"properties":{"name":"Semey","country":"Kazakhstan","capital":false}},{"type":"Point","coordinates":[82.6149467,49.9900352],"properties":{"name":"Oskemen","country":"Kazakhstan","capital":false}},{"type":"Point","coordinates":[54.370004,31.9200529],"properties":{"name":"Yazd","country":"Iran","capital":false}},{"type":"Point","coordinates":[48.7180671,31.2819345],"properties":{"name":"Ahvaz","country":"Iran","capital":false}},{"type":"Point","coordinates":[47.8116108,30.5154696],"properties":{"name":"Basra","country":"Iraq","capital":false}},{"type":"Point","coordinates":[56.2721355,27.2040598],"properties":{"name":"Bandar-e-Abbas","country":"Iran","capital":false}},{"type":"Point","coordinates":[48.5150126,34.7960272],"properties":{"name":"Hamadan","country":"Iran","capital":false}},{"type":"Point","coordinates":[46.2993,38.0882374],"properties":{"name":"Tabriz","country":"Iran","capital":false}},{"type":"Point","coordinates":[75.8703116,30.9297079],"properties":{"name":"Ludhiana","country":"India","capital":false}},{"type":"Point","coordinates":[75.8330529,25.1819451],"properties":{"name":"Kota","country":"India","capital":false}},{"type":"Point","coordinates":[73.014827,26.2937118],"properties":{"name":"Jodhpur","country":"India","capital":false}},{"type":"Point","coordinates":[69.5950179,42.3200124],"properties":{"name":"Shymkent","country":"Kazakhstan","capital":false}},{"type":"Point","coordinates":[71.3649873,42.899977],"properties":{"name":"Taraz","country":"Kazakhstan","capital":false}},{"type":"Point","coordinates":[80.9130529,26.8569849],"properties":{"name":"Lucknow","country":"India","capital":false}},{"type":"Point","coordinates":[77.5500362,29.9700169],"properties":{"name":"Saharanpur","country":"India","capital":false}},{"type":"Point","coordinates":[85.3280805,23.3719522],"properties":{"name":"Ranchi","country":"India","capital":false}},{"type":"Point","coordinates":[86.9800032,25.2299962],"properties":{"name":"Bhagalpur","country":"India","capital":false}},{"type":"Point","coordinates":[81.6330606,21.2369404],"properties":{"name":"Raipur","country":"India","capital":false}},{"type":"Point","coordinates":[79.9531115,23.1770028],"properties":{"name":"Jabalpur","country":"India","capital":false}},{"type":"Point","coordinates":[75.8630769,22.7170051],"properties":{"name":"Indore","country":"India","capital":false}},{"type":"Point","coordinates":[79.8300004,11.9349937],"properties":{"name":"Puducherry","country":"India","capital":false}},{"type":"Point","coordinates":[78.1781294,11.6719428],"properties":{"name":"Salem","country":"India","capital":false}},{"type":"Point","coordinates":[78.68751168489561,10.80054141894286],"properties":{"name":"Tiruchirappalli","country":"India","capital":false}},{"type":"Point","coordinates":[11.8800394,-4.7700073],"properties":{"name":"Pointe-Noire","country":"Congo (Brazzaville)","capital":false}},{"type":"Point","coordinates":[-9.3100108,10.3899976],"properties":{"name":"Kankan","country":"Guinea","capital":false}},{"type":"Point","coordinates":[-8.8299884,7.7600031],"properties":{"name":"Nzerekore","country":"Guinea","capital":false}},{"type":"Point","coordinates":[-5.0300137,7.6899815],"properties":{"name":"Bouake","country":"Ivory Coast","capital":false}},{"type":"Point","coordinates":[55.4480778,-20.8788948],"properties":{"name":"St.-Denis","country":"France","capital":false}},{"type":"Point","coordinates":[-67.8000066,-9.9665893],"properties":{"name":"Rio Branco","country":"Brazil","capital":false}},{"type":"Point","coordinates":[-44.2679367,-2.5140388],"properties":{"name":"Sao Luis","country":"Brazil","capital":false}},{"type":"Point","coordinates":[-63.900012,-8.7500228],"properties":{"name":"Porto Velho","country":"Brazil","capital":false}},{"type":"Point","coordinates":[-49.0820018,-12.4700024],"properties":{"name":"Alvorada","country":"Brazil","capital":false}},{"type":"Point","coordinates":[-57.6500059,-19.0160111],"properties":{"name":"Corumba","country":"Brazil","capital":false}},{"type":"Point","coordinates":[-43.9169504,-19.9130802],"properties":{"name":"Belo Horizonte","country":"Brazil","capital":false}},{"type":"Point","coordinates":[-43.8600208,-16.7200272],"properties":{"name":"Montes Claros","country":"Brazil","capital":false}},{"type":"Point","coordinates":[-48.2799836,-18.8999975],"properties":{"name":"Uberlandia","country":"Brazil","capital":false}},{"type":"Point","coordinates":[-55.4505795,-10.8172868],"properties":{"name":"Colider","country":"Brazil","capital":false}},{"type":"Point","coordinates":[-55.909983,-9.9000301],"properties":{"name":"Alta Floresta","country":"Brazil","capital":false}},{"type":"Point","coordinates":[-56.086931,-15.5676606],"properties":{"name":"Cuiaba","country":"Brazil","capital":false}},{"type":"Point","coordinates":[-52.3300206,-31.7500142],"properties":{"name":"Pelotas","country":"Brazil","capital":false}},{"type":"Point","coordinates":[-51.1700397,-29.1799902],"properties":{"name":"Caxias do Sul","country":"Brazil","capital":false}},{"type":"Point","coordinates":[-50.1600497,-25.0900073],"properties":{"name":"Ponta Grossa","country":"Brazil","capital":false}},{"type":"Point","coordinates":[-42.7819551,-5.0930545],"properties":{"name":"Teresina","country":"Brazil","capital":false}},{"type":"Point","coordinates":[-35.7319203,-9.6180496],"properties":{"name":"Maceio","country":"Brazil","capital":false}},{"type":"Point","coordinates":[-40.8399984,-14.8500122],"properties":{"name":"Vitoria da Conquista","country":"Brazil","capital":false}},{"type":"Point","coordinates":[-45.0000029,-12.1399967],"properties":{"name":"Barreiras","country":"Brazil","capital":false}},{"type":"Point","coordinates":[-40.290232724874905,-20.338046307430577],"properties":{"name":"Vila Velha","country":"Brazil","capital":false}},{"type":"Point","coordinates":[-35.2419502,-5.7780773],"properties":{"name":"Natal","country":"Brazil","capital":false}},{"type":"Point","coordinates":[-97.8666209,55.749942],"properties":{"name":"Thompson","country":"Canada","capital":false}},{"type":"Point","coordinates":[-99.9499821,49.8332748],"properties":{"name":"Brandon","country":"Canada","capital":false}},{"type":"Point","coordinates":[-111.8833364,60.0000185],"properties":{"name":"Fort Smith","country":"Canada","capital":false}},{"type":"Point","coordinates":[-111.3833153,56.7333187],"properties":{"name":"Fort McMurray","country":"Canada","capital":false}},{"type":"Point","coordinates":[-117.2832911,56.2333234],"properties":{"name":"Peace River","country":"Canada","capital":false}},{"type":"Point","coordinates":[-120.8332811,56.249989],"properties":{"name":"Fort St. John","country":"Canada","capital":false}},{"type":"Point","coordinates":[-68.5001917,63.7504594],"properties":{"name":"Iqaluit","country":"Canada","capital":false}},{"type":"Point","coordinates":[-105.0333153,69.1169556],"properties":{"name":"Cambridge Bay","country":"Canada","capital":false}},{"type":"Point","coordinates":[-115.1253504,67.7986628],"properties":{"name":"Kugluktuk","country":"Canada","capital":false}},{"type":"Point","coordinates":[-90.7000816,63.3382902],"properties":{"name":"Chesterfield Inlet","country":"Canada","capital":false}},{"type":"Point","coordinates":[-94.0586067,61.1085921],"properties":{"name":"Arviat","country":"Canada","capital":false}},{"type":"Point","coordinates":[-93.5333195,69.5333126],"properties":{"name":"Taloyoak","country":"Canada","capital":false}},{"type":"Point","coordinates":[-81.7935921,69.2565351],"properties":{"name":"Igloolik","country":"Canada","capital":false}},{"type":"Point","coordinates":[-139.4166687,64.0666437],"properties":{"name":"Dawson City","country":"Canada","capital":false}},{"type":"Point","coordinates":[-81.3333149,48.4665882],"properties":{"name":"Timmins","country":"Canada","capital":false}},{"type":"Point","coordinates":[-79.4499931,46.3000021],"properties":{"name":"North Bay","country":"Canada","capital":false}},{"type":"Point","coordinates":[-77.7658324,55.2814952],"properties":{"name":"Kuujjuarapik","country":"Canada","capital":false}},{"type":"Point","coordinates":[-68.3999958,58.1000053],"properties":{"name":"Kuujjuaq","country":"Canada","capital":false}},{"type":"Point","coordinates":[-60.1799807,46.0661145],"properties":{"name":"Sydney","country":"Canada","capital":false}},{"type":"Point","coordinates":[-66.9158745,52.9414313],"properties":{"name":"Labrador City","country":"Canada","capital":false}},{"type":"Point","coordinates":[11.1500065,2.9000155],"properties":{"name":"Ebolowa","country":"Cameroon","capital":false}},{"type":"Point","coordinates":[20.6672033,5.7619597],"properties":{"name":"Bambari","country":"Central African Republic","capital":false}},{"type":"Point","coordinates":[12.3349987,45.4386593],"properties":{"name":"Venice","country":"Italy","capital":false}},{"type":"Point","coordinates":[-72.3000161,-50.3333244],"properties":{"name":"El Calafate","country":"Argentina","capital":false}},{"type":"Point","coordinates":[-68.5199884,-31.5500264],"properties":{"name":"San Juan","country":"Argentina","capital":false}},{"type":"Point","coordinates":[-65.0999905,-43.3000069],"properties":{"name":"Rawson","country":"Argentina","capital":false}},{"type":"Point","coordinates":[-68.0599907,-38.9500399],"properties":{"name":"Neuquen","country":"Argentina","capital":false}},{"type":"Point","coordinates":[-64.8999768,-14.8333724],"properties":{"name":"Trinidad","country":"Bolivia","capital":false}},{"type":"Point","coordinates":[-64.2999876,-36.6200012],"properties":{"name":"Santa Rosa","country":"Argentina","capital":false}},{"type":"Point","coordinates":[-71.2999996,-41.1499573],"properties":{"name":"San Carlos de Bariloche","country":"Argentina","capital":false}},{"type":"Point","coordinates":[-65.4166378,-24.7833594],"properties":{"name":"Salta","country":"Argentina","capital":false}},{"type":"Point","coordinates":[-65.21857,-26.8140543],"properties":{"name":"Tucuman","country":"Argentina","capital":false}},{"type":"Point","coordinates":[-58.1828158,-26.1728353],"properties":{"name":"Formosa","country":"Argentina","capital":false}},{"type":"Point","coordinates":[-60.6900013,-31.6238721],"properties":{"name":"Santa Fe","country":"Argentina","capital":false}},{"type":"Point","coordinates":[-60.6682535,-32.9491837],"properties":{"name":"Rosario","country":"Argentina","capital":false}},{"type":"Point","coordinates":[-47.05588541861934,-22.90789786605005],"properties":{"name":"Campinas","country":"Brazil","capital":false}},{"type":"Point","coordinates":[-47.4699813,-23.4900016],"properties":{"name":"Sorocaba","country":"Brazil","capital":false}},{"type":"Point","coordinates":[-47.8299852,-21.1700399],"properties":{"name":"Ribeirao Preto","country":"Brazil","capital":false}},{"type":"Point","coordinates":[-40.5099669,-9.3800102],"properties":{"name":"Petrolina","country":"Brazil","capital":false}},{"type":"Point","coordinates":[10.1500158,5.9599837],"properties":{"name":"Bamenda","country":"Cameroon","capital":false}},{"type":"Point","coordinates":[13.3900248,9.3000124],"properties":{"name":"Garoua","country":"Cameroon","capital":false}},{"type":"Point","coordinates":[62.169993,34.3300092],"properties":{"name":"Herat","country":"Afghanistan","capital":false}},{"type":"Point","coordinates":[67.100028,36.6999937],"properties":{"name":"Mazar-e Sharif","country":"Afghanistan","capital":false}},{"type":"Point","coordinates":[103.2000468,13.100013],"properties":{"name":"Battambang","country":"Cambodia","capital":false}},{"type":"Point","coordinates":[103.8500329,13.3666376],"properties":{"name":"Siem Reap","country":"Cambodia","capital":false}},{"type":"Point","coordinates":[16.3400256,-9.5400004],"properties":{"name":"Malanje","country":"Angola","capital":false}},{"type":"Point","coordinates":[13.407233,-12.5782645],"properties":{"name":"Benguela","country":"Angola","capital":false}},{"type":"Point","coordinates":[13.4900187,-14.9100085],"properties":{"name":"Lubango","country":"Angola","capital":false}},{"type":"Point","coordinates":[12.1600223,-15.1900431],"properties":{"name":"Namibe","country":"Angola","capital":false}},{"type":"Point","coordinates":[-64.749986,-21.5166854],"properties":{"name":"Tarija","country":"Bolivia","capital":false}},{"type":"Point","coordinates":[-59.6165267,13.1020026],"properties":{"name":"Bridgetown","country":"Barbados","capital":true}},{"type":"Point","coordinates":[7.7599808,36.9200061],"properties":{"name":"Annaba","country":"Algeria","capital":false}},{"type":"Point","coordinates":[2.6200362,9.34001],"properties":{"name":"Parakou","country":"Benin","capital":false}},{"type":"Point","coordinates":[2.6166255,6.483311],"properties":{"name":"Porto-Novo","country":"Benin","capital":false}},{"type":"Point","coordinates":[6.5999483,36.3599886],"properties":{"name":"Constantine","country":"Algeria","capital":false}},{"type":"Point","coordinates":[23.6999898,52.0999839],"properties":{"name":"Brest","country":"Belarus","capital":false}},{"type":"Point","coordinates":[89.5580549,22.8419329],"properties":{"name":"Khulna","country":"Bangladesh","capital":false}},{"type":"Point","coordinates":[27.5000162,-21.1700399],"properties":{"name":"Francistown","country":"Botswana","capital":false}},{"type":"Point","coordinates":[26.8200061,-23.0999996],"properties":{"name":"Mahalapye","country":"Botswana","capital":false}},{"type":"Point","coordinates":[26.7100386,-22.3900171],"properties":{"name":"Serowe","country":"Botswana","capital":false}},{"type":"Point","coordinates":[132.266593,-14.4666247],"properties":{"name":"Katherine","country":"Australia","capital":false}},{"type":"Point","coordinates":[115.3486592,-33.6564095],"properties":{"name":"Busselton","country":"Australia","capital":false}},{"type":"Point","coordinates":[115.7470567,-32.5234826],"properties":{"name":"Mandurah","country":"Australia","capital":false}},{"type":"Point","coordinates":[122.2307681,-17.9617707],"properties":{"name":"Broome","country":"Australia","capital":false}},{"type":"Point","coordinates":[121.4600175,-30.7353992],"properties":{"name":"Kalgoorlie","country":"Australia","capital":false}},{"type":"Point","coordinates":[117.8916048,-35.0169466],"properties":{"name":"Albany","country":"Australia","capital":false}},{"type":"Point","coordinates":[118.6060315,-20.3104024],"properties":{"name":"Port Hedland","country":"Australia","capital":false}},{"type":"Point","coordinates":[116.8700134,-20.7303768],"properties":{"name":"Karratha","country":"Australia","capital":false}},{"type":"Point","coordinates":[114.5999711,-28.7666304],"properties":{"name":"Geraldton","country":"Australia","capital":false}},{"type":"Point","coordinates":[146.0400158,-34.2900142],"properties":{"name":"Griffith","country":"Australia","capital":false}},{"type":"Point","coordinates":[149.0999841,-33.2799984],"properties":{"name":"Orange","country":"Australia","capital":false}},{"type":"Point","coordinates":[148.5973274,-32.2599573],"properties":{"name":"Dubbo","country":"Australia","capital":false}},{"type":"Point","coordinates":[151.667476,-30.512312],"properties":{"name":"Armidale","country":"Australia","capital":false}},{"type":"Point","coordinates":[141.4331136,-31.9499503],"properties":{"name":"Broken Hill","country":"Australia","capital":false}},{"type":"Point","coordinates":[135.86658,-34.733243],"properties":{"name":"Port Lincoln","country":"Australia","capital":false}},{"type":"Point","coordinates":[137.5614119,-33.0250268],"properties":{"name":"Whyalla","country":"Australia","capital":false}},{"type":"Point","coordinates":[141.5900032,-38.3399996],"properties":{"name":"Portland","country":"Australia","capital":false}},{"type":"Point","coordinates":[144.2800199,-36.7599927],"properties":{"name":"Bendigo","country":"Australia","capital":false}},{"type":"Point","coordinates":[146.3,-36.3600171],"properties":{"name":"Wangaratta","country":"Australia","capital":false}},{"type":"Point","coordinates":[142.6501969,-25.4332422],"properties":{"name":"Windorah","country":"Australia","capital":false}},{"type":"Point","coordinates":[139.490028,-20.7238655],"properties":{"name":"Mount Isa","country":"Australia","capital":false}},{"type":"Point","coordinates":[150.5200008,-23.3639111],"properties":{"name":"Rockhampton","country":"Australia","capital":false}},{"type":"Point","coordinates":[145.7633309,-16.8878399],"properties":{"name":"Cairns","country":"Australia","capital":false}},{"type":"Point","coordinates":[153.4482458,-28.0815043],"properties":{"name":"Gold Coast","country":"Australia","capital":false}},{"type":"Point","coordinates":[146.3311017,-41.1926676],"properties":{"name":"Devonport","country":"Australia","capital":false}},{"type":"Point","coordinates":[-4.2899813,11.1799752],"properties":{"name":"Bobo Dioulasso","country":"Burkina Faso","capital":false}},{"type":"Point","coordinates":[88.6030744,24.3769296],"properties":{"name":"Rajshahi","country":"Bangladesh","capital":false}},{"type":"Point","coordinates":[96.083083,21.9719343],"properties":{"name":"Mandalay","country":"Myanmar","capital":false}},{"type":"Point","coordinates":[92.8800048,20.1399968],"properties":{"name":"Sittwe","country":"Myanmar","capital":false}},{"type":"Point","coordinates":[29.3600061,-3.3760872],"properties":{"name":"Bujumbura","country":"Burundi","capital":true}},{"type":"Point","coordinates":[-170.7066451,-14.2766105],"properties":{"name":"Pago Pago","country":"American Samoa","capital":false}},{"type":"Point","coordinates":[-61.220236420747256,13.155756013621149],"properties":{"name":"Kingstown","country":"Saint Vincent and the Grenadines","capital":true}},{"type":"Point","coordinates":[-60.99287543435381,14.007874585883364],"properties":{"name":"Castries","country":"Saint Lucia","capital":true}},{"type":"Point","coordinates":[-62.7170093,17.3020305],"properties":{"name":"Basseterre","country":"Saint Kitts and Nevis","capital":true}},{"type":"Point","coordinates":[-15.429999,28.099976],"properties":{"name":"Las Palmas","country":"Spain","capital":false}},{"type":"Point","coordinates":[45.0164148,10.4355504],"properties":{"name":"Berbera","country":"Somaliland","capital":false}},{"type":"Point","coordinates":[57.4999939,-20.1666386],"properties":{"name":"Port Louis","country":"Mauritius","capital":true}},{"type":"Point","coordinates":[34.4450187,31.5299992],"properties":{"name":"Gaza","country":"Palestine","capital":false}},{"type":"Point","coordinates":[-61.7416432,12.0526334],"properties":{"name":"Saint George's","country":"Grenada","capital":true}},{"type":"Point","coordinates":[-149.5666694,-17.5333626],"properties":{"name":"Papeete","country":"French Polynesia","capital":false}},{"type":"Point","coordinates":[50.5830517,26.2361363],"properties":{"name":"Manama","country":"Bahrain","capital":true}},{"type":"Point","coordinates":[-78.7000131,26.5332758],"properties":{"name":"Freeport","country":"The Bahamas","capital":false}},{"type":"Point","coordinates":[-61.8500338,17.1180365],"properties":{"name":"Saint John's","country":"Antigua and Barbuda","capital":true}},{"type":"Point","coordinates":[120.681667,24.1520775],"properties":{"name":"Taichung","country":"Taiwan","capital":false}},{"type":"Point","coordinates":[176.926451,-39.4900014],"properties":{"name":"Napier","country":"New Zealand","capital":false}},{"type":"Point","coordinates":[174.8849708,-36.9999702],"properties":{"name":"Manukau","country":"New Zealand","capital":false}},{"type":"Point","coordinates":[175.2895781,-37.7782694],"properties":{"name":"Hamilton","country":"New Zealand","capital":false}},{"type":"Point","coordinates":[173.9549575,-41.5135172],"properties":{"name":"Blenheim","country":"New Zealand","capital":false}},{"type":"Point","coordinates":[170.4910157,-45.8854231],"properties":{"name":"Dunedin","country":"New Zealand","capital":false}},{"type":"Point","coordinates":[77.57229066274353,34.16155933706067],"properties":{"name":"Leh","country":"India","capital":false}},{"type":"Point","coordinates":[80.52432001010749,16.533657954485985],"properties":{"name":"Amaravati","country":"India","capital":false}},{"type":"Point","coordinates":[75.7680439,11.2523819],"properties":{"name":"Kozhikode","country":"India","capital":false}},{"type":"Point","coordinates":[85.8254145,20.2723739],"properties":{"name":"Bhubaneshwar","country":"India","capital":false}},{"type":"Point","coordinates":[86.1955728,22.7894813],"properties":{"name":"Jamshedpur","country":"India","capital":false}},{"type":"Point","coordinates":[-56.18682337831074,-34.90537638970807],"properties":{"name":"Montevideo","country":"Uruguay","capital":true}},{"type":"Point","coordinates":[-112.035291,46.592749],"properties":{"name":"Helena","country":"United States of America","capital":false}},{"type":"Point","coordinates":[-100.7833163,46.8083173],"properties":{"name":"Bismarck","country":"United States of America","capital":false}},{"type":"Point","coordinates":[-116.2274899,43.6085901],"properties":{"name":"Boise","country":"United States of America","capital":false}},{"type":"Point","coordinates":[-121.88817862628899,37.33094269973713],"properties":{"name":"San Jose","country":"United States of America","capital":false}},{"type":"Point","coordinates":[-121.4719839,38.5769672],"properties":{"name":"Sacramento","country":"United States of America","capital":false}},{"type":"Point","coordinates":[-115.15136155601854,36.16476322583196],"properties":{"name":"Las Vegas","country":"United States of America","capital":false}},{"type":"Point","coordinates":[-105.9372394,35.6869289],"properties":{"name":"Santa Fe","country":"United States of America","capital":false}},{"type":"Point","coordinates":[-122.6819359,45.5219697],"properties":{"name":"Portland","country":"United States of America","capital":false}},{"type":"Point","coordinates":[-111.9319978,40.7769622],"properties":{"name":"Salt Lake City","country":"United States of America","capital":false}},{"type":"Point","coordinates":[-104.8197107,41.1400069],"properties":{"name":"Cheyenne","country":"United States of America","capital":false}},{"type":"Point","coordinates":[-93.6199809,41.5799801],"properties":{"name":"Des Moines","country":"United States of America","capital":false}},{"type":"Point","coordinates":[-96.0099901,41.2400008],"properties":{"name":"Omaha","country":"United States of America","capital":false}},{"type":"Point","coordinates":[-97.5206294,35.4719888],"properties":{"name":"Oklahoma City","country":"United States of America","capital":false}},{"type":"Point","coordinates":[-100.350552,44.368337],"properties":{"name":"Pierre","country":"United States of America","capital":false}},{"type":"Point","coordinates":[-98.4926929920987,29.419848478603353],"properties":{"name":"San Antonio","country":"United States of America","capital":false}},{"type":"Point","coordinates":[-72.2499675,7.7700025],"properties":{"name":"San Cristobal","country":"Venezuela","capital":false}},{"type":"Point","coordinates":[-67.9819673,10.2319274],"properties":{"name":"Valencia","country":"Venezuela","capital":false}},{"type":"Point","coordinates":[-90.1849968,32.2988153],"properties":{"name":"Jackson","country":"United States of America","capital":false}},{"type":"Point","coordinates":[-78.64703463664539,35.77269601271186],"properties":{"name":"Raleigh","country":"United States of America","capital":false}},{"type":"Point","coordinates":[-81.6969441,41.4719327],"properties":{"name":"Cleveland","country":"United States of America","capital":false}},{"type":"Point","coordinates":[-84.4588685,39.1638306],"properties":{"name":"Cincinnati","country":"United States of America","capital":false}},{"type":"Point","coordinates":[-86.7819308,36.1719202],"properties":{"name":"Nashville","country":"United States of America","capital":false}},{"type":"Point","coordinates":[-90.02877702278532,35.14470115515157],"properties":{"name":"Memphis","country":"United States of America","capital":false}},{"type":"Point","coordinates":[-76.2800057,36.8499587],"properties":{"name":"Norfolk","country":"United States of America","capital":false}},{"type":"Point","coordinates":[-87.91667321462553,43.029608354300805],"properties":{"name":"Milwaukee","country":"United States of America","capital":false}},{"type":"Point","coordinates":[-78.8819479,42.8819241],"properties":{"name":"Buffalo","country":"United States of America","capital":false}},{"type":"Point","coordinates":[-80.0019313,40.4319445],"properties":{"name":"Pittsburgh","country":"United States of America","capital":false}},{"type":"Point","coordinates":[-62.6199868,8.3700175],"properties":{"name":"Ciudad Guayana","country":"Venezuela","capital":false}},{"type":"Point","coordinates":[1.2208113,6.1338829],"properties":{"name":"Lome","country":"Togo","capital":true}},{"type":"Point","coordinates":[10.1796781,36.8027781],"properties":{"name":"Tunis","country":"Tunisia","capital":true}},{"type":"Point","coordinates":[-152.4069869,57.7899984],"properties":{"name":"Kodiak","country":"United States of America","capital":false}},{"type":"Point","coordinates":[-162.7150916,55.2000014],"properties":{"name":"Cold Bay","country":"United States of America","capital":false}},{"type":"Point","coordinates":[-161.7557961,60.7933034],"properties":{"name":"Bethel","country":"United States of America","capital":false}},{"type":"Point","coordinates":[-166.8080201,68.3477261],"properties":{"name":"Point Hope","country":"United States of America","capital":false}},{"type":"Point","coordinates":[-156.78858,71.2905697],"properties":{"name":"Utqiavik","country":"United States of America","capital":false}},{"type":"Point","coordinates":[-165.4063744,64.5061001],"properties":{"name":"Nome","country":"United States of America","capital":false}},{"type":"Point","coordinates":[-146.348287,61.1359957],"properties":{"name":"Valdez","country":"United States of America","capital":false}},{"type":"Point","coordinates":[-134.40071204654924,58.303386246371936],"properties":{"name":"Juneau","country":"United States of America","capital":false}},{"type":"Point","coordinates":[-147.7106586,64.8369843],"properties":{"name":"Fairbanks","country":"United States of America","capital":false}},{"type":"Point","coordinates":[-148.6693598,70.292181],"properties":{"name":"Prudhoe Bay","country":"United States of America","capital":false}},{"type":"Point","coordinates":[33.52439491312476,44.60392525649835],"properties":{"name":"Sevastapol","country":"Russia","capital":false}},{"type":"Point","coordinates":[54.3665934,24.4666836],"properties":{"name":"Abu Dhabi","country":"United Arab Emirates","capital":true}},{"type":"Point","coordinates":[58.3832991,37.9499949],"properties":{"name":"Ashgabat","country":"Turkmenistan","capital":true}},{"type":"Point","coordinates":[66.9449987,39.6700191],"properties":{"name":"Samarqand","country":"Uzbekistan","capital":false}},{"type":"Point","coordinates":[28.2813817,-15.4146984],"properties":{"name":"Lusaka","country":"Zambia","capital":true}},{"type":"Point","coordinates":[31.0427636,-17.8158438],"properties":{"name":"Harare","country":"Zimbabwe","capital":true}},